%time,seq,stamp,frame_id,x,y,z
0,0,0,world,0.0,0.0,0.0
66732974,1,50000000,world,2.9106113075272333e-08,-3.8193270768260845e-09,4.444562051730827e-08
97507457,2,100000000,world,2.74031055624846e-08,-4.10983647114449e-09,4.3640390856580786e-08
132808305,3,150000000,world,3.3159494705614634e-08,-2.880431226870428e-09,4.510942375191007e-08
199802819,4,200000000,world,3.1743937256578654e-08,-2.531512111048073e-09,4.484202520416147e-08
244881416,5,250000000,world,3.192012343333772e-08,-2.603588455940553e-09,4.563141331459519e-08
296581888,6,300000000,world,3.1684695755984655e-08,-2.6578339529237383e-09,4.561018229765068e-08
334123300,7,350000000,world,3.1449268078631576e-08,-2.7120794499069234e-09,4.5588951280706176e-08
395807571,8,400000000,world,3.118014291203508e-08,-2.788084207949737e-09,4.5459323416707775e-08
425405963,9,450000000,world,3.0911017745438585e-08,-2.86408896599255e-09,4.532969555270938e-08
493992331,10,500000000,world,3.064189257884209e-08,-2.940093724035364e-09,4.5200067688710994e-08
528537227,11,550000000,world,3.036308982018454e-08,-3.0175497656159678e-09,4.50562609444205e-08
594014896,12,600000000,world,3.02089517845161e-08,-3.1113929210846436e-09,4.46141221743801e-08
645571089,13,650000000,world,3.2180309972318355e-08,-2.645595964523295e-09,4.57118360941422e-08
701400645,14,700000000,world,3.3711046398821054e-08,-2.705896173793576e-09,4.5107569235369744e-08
736569387,15,750000000,world,3.059793485249429e-08,-2.015552613698901e-09,4.5662623904263455e-08
795012953,16,800000000,world,3.057636632775029e-08,-3.270490989137897e-09,4.506621209543482e-08
837534411,17,850000000,world,3.107078683228792e-08,-2.181071989681982e-09,4.5700463857656366e-08
892556549,18,900000000,world,3.1421400592535065e-08,-1.1390715037862263e-09,4.617526272454597e-08
931023111,19,950000000,world,3.155738426130483e-08,-3.015967198205516e-10,4.619398197291957e-08
997801539,20,1000000000,world,3.16933679300746e-08,5.358778976116696e-10,4.621270122129317e-08
1042635960,21,1050000000,world,3.1829351598844375e-08,1.3733525427994662e-09,4.623142046966677e-08
1105874561,22,1100000000,world,2.9792291300623223e-08,-6.645913819269821e-10,4.370396666786292e-08
1132754085,23,1150000000,world,3.39119559100709e-08,-2.721044278786166e-09,4.477725212836958e-08
1199633578,24,1200000000,world,3.1679785905680546e-08,-2.854769309834637e-09,4.5588475217073217e-08
1245736547,25,1250000000,world,2.969008683351149e-08,-3.0738220857529086e-09,4.5982258001231464e-08
1299884606,26,1300000000,world,3.05780076814699e-08,-3.3181550840311043e-09,4.525588437331862e-08
1332020792,27,1350000000,world,3.0953277274647923e-08,-2.1728754351357793e-09,4.5554212846354865e-08
1398721799,28,1400000000,world,3.1328546867825935e-08,-1.0275957862404539e-09,4.585254131939109e-08
1442304417,29,1450000000,world,3.170381646100395e-08,1.1768387653265933e-10,4.6150869792427336e-08
1495324985,30,1500000000,world,2.9851179306206184e-08,-1.211498235065278e-09,4.3882415923235385e-08
1530906246,31,1550000000,world,3.3756524686623386e-08,-2.683589350738202e-09,4.5157186434607866e-08
1598094828,32,1600000000,world,3.3743980054623535e-08,-2.7248092671072754e-09,4.4983266889175866e-08
1635996201,33,1650000000,world,9.65437211561948e-05,-0.0010696443496271,0.0218299701809883
1704567356,34,1700000000,world,-0.0015052224043756,0.0006207397673279,0.058295652270317
1724897454,35,1750000000,world,0.0009727841243147,-0.000655222160276,0.0956973806023597
1797103093,36,1800000000,world,0.0023589946795254,0.0001761661260388,0.133303627371788
1829892959,37,1850000000,world,0.0066067320294678,-0.0010023824870586,0.171414703130722
1903362797,38,1900000000,world,0.009695834480226,-0.0001164060231531,0.2139981687068939
1947012997,39,1950000000,world,0.017779616639018,-0.0016474557342007,0.2531380951404571
1996265886,40,2000000000,world,0.0246508214622735,-4.373693445813842e-05,0.2881377935409546
2038105287,41,2050000000,world,0.0324458926916122,-8.044781861826777e-05,0.3260494172573089
2105608874,42,2100000000,world,0.04495445266366,-7.891467248555273e-05,0.3565850853919983
2127281901,43,2150000000,world,0.0561659634113311,-0.0012622082140296,0.3940054476261139
2199023733,44,2200000000,world,0.0510965548455715,-0.0017889095470309,0.3832794725894928
2231636604,45,2250000000,world,0.041170135140419,0.0007749848300591,0.3500958979129791
2298894953,46,2300000000,world,0.0299510899931192,-0.0003721993998624,0.3127989470958709
2331745719,47,2350000000,world,0.0220989864319562,0.0009002772276289,0.2764547765254974
2392424923,48,2400000000,world,0.0151088116690516,0.0008131962968036,0.2390808165073394
2430500703,49,2450000000,world,0.0054830876179039,-0.0003849565400741,0.200167715549469
2499450306,50,2500000000,world,0.003171713091433,0.0002441886172164,0.1660780757665634
2536836574,51,2550000000,world,-0.0018232796574011,-0.0008839144138619,0.1271197944879531
2602693102,52,2600000000,world,-0.0024198400788009,0.0002839870867319,0.0892371535301208
2631635508,53,2650000000,world,-0.0032163884025067,0.0004076877376064,0.0505595654249191
2693078340,54,2700000000,world,-0.0041804597713053,0.0002460363903082,0.0141442250460386
2728473608,55,2750000000,world,-0.0014998009428381,0.000582676671911,-0.0253048576414585
2799289967,56,2800000000,world,0.0005571563960984,-0.0016140765510499,-0.0669372752308845
2832865027,57,2850000000,world,0.007280676625669,-0.0026431216392666,-0.1063075587153434
2894719547,58,2900000000,world,0.012741913087666,-0.003268614411354,-0.1515448987483978
2928451479,59,2950000000,world,0.0203159321099519,-0.0016601525712758,-0.1821959018707275
2994270593,60,3000000000,world,0.0259516704827547,0.0001810737303458,-0.2246008068323135
3028693068,61,3050000000,world,0.0369624085724353,0.0009961843024939,-0.2639510631561279
3092384154,62,3100000000,world,0.045883685350418,-0.0001444600056856,-0.2986442744731903
3127360353,63,3150000000,world,0.0543339997529983,-0.0009522143518552,-0.3317780196666717
3193317113,64,3200000000,world,0.0585712268948555,-0.0040115881711244,-0.376234233379364
3234716689,65,3250000000,world,0.0681657344102859,-0.0033866362646222,-0.4136647582054138
3304757860,66,3300000000,world,0.0770636349916458,-0.0063449754379689,-0.4529685974121094
3331428960,67,3350000000,world,0.0915121287107467,-0.0041386843658983,-0.4876623749732971
3396640589,68,3400000000,world,0.1076502948999404,-0.0051950626075267,-0.5254095792770386
3429010374,69,3450000000,world,0.0923568829894065,-0.006082500796765,-0.4941520392894745
3496532856,70,3500000000,world,0.0791564509272575,-0.0048449481837451,-0.4615840017795563
3532294343,71,3550000000,world,0.0642073899507522,-0.0049137505702674,-0.421504259109497
3595677441,72,3600000000,world,0.04816884547472,-0.0064108660444617,-0.3843398094177246
3642004711,73,3650000000,world,0.0388199836015701,-0.0043452950194478,-0.3452236354351043
3705932295,74,3700000000,world,0.0279914382845163,-0.0036548643838614,-0.3083479404449463
3731961588,75,3750000000,world,0.0213446840643882,-0.0022798420395702,-0.2694790065288543
3794148372,76,3800000000,world,0.0117125483229756,-0.0009967716177925,-0.230246216058731
3831212493,77,3850000000,world,0.0040200748480856,0.0016104074893519,-0.1919097751379013
3902017569,78,3900000000,world,-0.0009296516072936,3.04833083646372e-05,-0.1550076454877853
3927801222,79,3950000000,world,-0.0060140425339341,0.0009679205249994,-0.1169282346963882
3995445059,80,4000000000,world,-0.0126304822042584,6.500463769043563e-06,-0.0765424519777298
4032967678,81,4050000000,world,-0.0177155248820781,0.0004660832346417,-0.0360771566629409
4105429100,82,4100000000,world,-0.0218492168933153,-0.0001305792247876,0.0005808605928905
4134564963,83,4150000000,world,-0.0246844924986362,6.856225081719458e-05,0.0404139868915081
4204463986,84,4200000000,world,-0.0229518227279186,-0.0008483374840579,0.0783329159021377
4242220545,85,4250000000,world,-0.0224285367876291,0.0015577395679429,0.1167555823922157
4297712107,86,4300000000,world,-0.0251737404614686,0.0019382963655516,0.1570101678371429
4332434541,87,4350000000,world,-0.0266860444098711,0.0017014619661495,0.1949025243520736
4402581512,88,4400000000,world,-0.0338084325194358,0.001482747728005,0.2348477393388748
4433587206,89,4450000000,world,-0.0391585230827331,0.0017903533298522,0.2744211554527282
4493792723,90,4500000000,world,-0.0478495210409164,-0.0005435035564005,0.314081072807312
4528731452,91,4550000000,world,-0.0555207952857017,0.0004194162902422,0.3516367077827453
4603507875,92,4600000000,world,-0.0656160190701484,0.0016087847761809,0.3882480263710022
4647707899,93,4650000000,world,-0.0747173950076103,0.0036921210121363,0.427813857793808
4706682760,94,4700000000,world,-0.0871499627828598,0.003217099700123,0.4646739959716797
4738634246,95,4750000000,world,-0.0988835021853447,0.0024979391600936,0.5003249049186707
4802389608,96,4800000000,world,-0.0873897820711135,0.0030204576905816,0.4680044949054718
4848873928,97,4850000000,world,-0.0753811672329902,0.0028989482671022,0.4323289096355438
4899416792,98,4900000000,world,-0.0638245567679405,0.0017982132267206,0.3948535621166229
4933214329,99,4950000000,world,-0.0524919331073761,0.002394844777882,0.3568257391452789
4999990889,100,5000000000,world,-0.0436836779117584,0.0019430613610893,0.31943479180336
5041273900,101,5050000000,world,-0.0352551862597465,0.0023007337003946,0.2817833125591278
5104062377,102,5100000000,world,-0.0282038021832704,0.0019412136171013,0.2417913377285003
5135826575,103,5150000000,world,-0.0224534887820482,0.0019559836946427,0.2027520984411239
5200482410,104,5200000000,world,-0.0185292232781648,0.0024472139775753,0.1603253632783889
5236978919,105,5250000000,world,-0.0162753164768219,0.0010630432516336,0.1226773038506507
5309043157,106,5300000000,world,-0.0164867378771305,0.0018320562085136,0.0837266817688942
5332390634,107,5350000000,world,-0.0181729234755039,0.0001360351307084,0.045168001204729
5402618116,108,5400000000,world,-0.0196782648563385,-0.0006380466511473,0.0076019493862986
5433013404,109,5450000000,world,-0.023794800043106,-0.0001352178369415,-0.0309747736901044
5503337655,110,5500000000,world,-0.0272254049777984,0.0016297998372465,-0.0705805420875549
5550847014,111,5550000000,world,-0.033437717705965,0.000885353598278,-0.1078744009137153
5598690933,112,5600000000,world,-0.0419944897294044,0.0004101731465198,-0.1480752229690551
5639093073,113,5650000000,world,-0.0472841784358024,1.4566394384019077e-05,-0.1753091365098953
5698807678,114,5700000000,world,-0.0404536686837673,-0.0009584798826836,-0.1381908357143402
5752838011,115,5750000000,world,-0.0316836722195148,0.0007425873191095,-0.0976341739296913
5797499161,116,5800000000,world,-0.0250095501542091,0.0005119575071148,-0.0590703152120113
5834348064,117,5850000000,world,-0.0201449766755104,0.0009223676752299,-0.0217601601034402
5903792938,118,5900000000,world,-0.0166480261832475,0.0005998413544148,0.0197364650666713
5947831145,119,5950000000,world,-0.0147447576746344,0.0009830080671235,0.0571453869342803
6000687600,120,6000000000,world,-0.0139573421329259,0.0019697018433362,0.0957992747426033
6032610499,121,6050000000,world,-0.0152936298400163,0.000275558035355,0.1351681053638458
6111030702,122,6100000000,world,-0.0163879208266735,0.0002523076254874,0.1670046299695968
6139360526,123,6150000000,world,-0.0161175802350044,0.0012343818088993,0.1674027144908905
6201567021,124,6200000000,world,-0.0163536947220563,0.0009754385682754,0.1671488881111145
6241134732,125,6250000000,world,-0.0163683108985424,0.001115623046644,0.1672115623950958
6301932565,126,6300000000,world,-0.0155692631378769,0.0016306020552292,0.1669613420963287
6338137530,127,6350000000,world,-0.0212588887661695,0.0004708933411166,0.2074824571609497
6398249976,128,6400000000,world,-0.0252650026232004,0.0008474518544971,0.2449488192796707
6442455638,129,6450000000,world,-0.0297795422375202,0.0008288953686133,0.2827434241771698
6509738521,130,6500000000,world,-0.0343976691365242,-7.484304205718217e-06,0.3211362063884735
6532444463,131,6550000000,world,-0.0397136025130748,8.774411253398284e-05,0.3594831228256225
6606163692,132,6600000000,world,-0.0408066362142562,0.0009061096352525,0.3971166014671325
6636355971,133,6650000000,world,-0.0462290868163108,0.000712149660103,0.4364030659198761
6701052477,134,6700000000,world,-0.0517298355698585,0.0005909234168939,0.4745998084545135
6733077056,135,6750000000,world,-0.0552032142877578,0.0008549482445232,0.5113047361373901
6807507969,136,6800000000,world,-0.0581514984369277,0.0005353467422537,0.5510109066963196
6840307045,137,6850000000,world,-0.0610879994928836,0.0008202477474696,0.5874538421630859
6899285323,138,6900000000,world,-0.065329760313034,0.0005455971113406,0.6238434314727783
6934463082,139,6950000000,world,-0.0690463185310363,0.0012312436010688,0.6626719236373901
7006311434,140,7000000000,world,-0.0756411775946617,3.63884391845204e-05,0.7011322379112244
7032364187,141,7050000000,world,-0.0804061070084571,2.588492861832492e-05,0.7384539842605591
7100341441,142,7100000000,world,-0.0821172595024108,0.0002515446976758,0.7741796970367432
7133595587,143,7150000000,world,-0.0874798446893692,0.0006956276483833,0.8135567307472229
7210500363,144,7200000000,world,-0.0913940742611885,0.0006774588837288,0.8497875928878784
7244239392,145,7250000000,world,-0.0941401198506355,0.0002131937508238,0.889568030834198
7303193796,146,7300000000,world,-0.0952972546219825,0.0007989474688656,0.9230698347091676
7334093303,147,7350000000,world,-0.0938222333788871,-4.320486186770722e-05,0.9631751775741576
7398192502,148,7400000000,world,-0.0960763096809387,-0.0011823136592283,1.0021189451217651
7428971646,149,7450000000,world,-0.0929416194558143,-0.0016681512352079,1.0410494804382324
7513905353,150,7500000000,world,-0.0889951214194297,-0.0017526471056044,1.074879169464111
7536585330,151,7550000000,world,-0.0823090896010398,-0.001522545935586,1.115133285522461
7594350918,152,7600000000,world,-0.0743205845355987,-0.0004033523437101,1.1502827405929563
7636527851,153,7650000000,world,-0.0631944611668586,-0.0008548065088689,1.1899170875549316
7697641315,154,7700000000,world,-0.0565364956855773,-0.0002590133517514,1.2249703407287598
7738236167,155,7750000000,world,-0.0460546314716339,0.0004235978994984,1.2609968185424805
7800504376,156,7800000000,world,-0.0357716009020805,-0.0007094040047377,1.291778564453125
7839683464,157,7850000000,world,-0.0223001204431056,7.40210380172357e-05,1.328885555267334
7907703774,158,7900000000,world,-0.0077461600303649,-0.0019758713897317,1.3637161254882812
7938483322,159,7950000000,world,0.0108054429292678,-0.0002992004156112,1.3967278003692627
8004329681,160,8000000000,world,0.0273472219705581,0.001097708242014,1.4302830696105957
8034076377,161,8050000000,world,0.044082686305046,-0.0014619295252487,1.4571422338485718
8099259501,162,8100000000,world,0.0647199153900146,0.0004320609441492,1.4905455112457275
8129902483,163,8150000000,world,0.0854352265596389,-0.0019603131804615,1.5167332887649536
8203020910,164,8200000000,world,0.1078881025314331,-0.0014349035918712,1.5446094274520874
8229552144,165,8250000000,world,0.1308629661798477,-0.0032730689272284,1.5700697898864746
8307387400,166,8300000000,world,0.1553342491388321,-0.0037765714805573,1.5996650457382202
8337154154,167,8350000000,world,0.182255133986473,-0.0022970866411924,1.6331496238708496
8401932598,168,8400000000,world,0.2071142494678497,-0.0016199689125642,1.6619718074798584
8456785257,169,8450000000,world,0.2330860346555709,-0.0020162684377282,1.6871951818466189
8504758977,170,8500000000,world,0.2591128945350647,-0.0008649937808513,1.7149640321731567
8538950920,171,8550000000,world,0.2848472595214844,-0.001492430223152,1.7423908710479736
8604845807,172,8600000000,world,0.3115900158882141,-0.0018129531526938,1.7655985355377195
8627912324,173,8650000000,world,0.3364729583263397,0.0001992827747017,1.7934157848358154
8696611725,174,8700000000,world,0.3595027923583984,0.0005326992250047,1.82121741771698
8745591793,175,8750000000,world,0.3822610378265381,0.0021606618538498,1.8478572368621824
8803033435,176,8800000000,world,0.4083241522312164,0.0022830029483884,1.8783477544784544
8838435329,177,8850000000,world,0.4289838373661041,-0.002056139986962,1.9016566276550293
8904923817,178,8900000000,world,0.4553502202033996,0.0005861280369572,1.9301495552062988
8939449957,179,8950000000,world,0.4795120656490326,-0.0022872798144817,1.9533671140670776
9000288280,180,9000000000,world,0.503780722618103,-0.0003191482392139,1.982315182685852
9040842688,181,9050000000,world,0.532287061214447,-0.000243497401243,2.0116591453552246
9106380366,182,9100000000,world,0.5590206384658813,-0.0022220760583877,2.044546604156494
9133342775,183,9150000000,world,0.5832648873329163,-0.0041957609355449,2.072848081588745
9208947146,184,9200000000,world,0.6100825071334839,-0.003145947586745,2.0993566513061523
9235070113,185,9250000000,world,0.6350595951080322,-0.0020934722851961,2.127356767654419
9310351571,186,9300000000,world,0.6645041704177856,-0.0033427223097532,2.149747371673584
9333884411,187,9350000000,world,0.6963757276535034,-0.0023339395411312,2.176208734512329
9401455754,188,9400000000,world,0.7255810499191284,-0.0022936933673918,2.198217868804932
9438722721,189,9450000000,world,0.7569957375526428,-0.0023913939949125,2.2219161987304688
9498657823,190,9500000000,world,0.7861435413360596,-0.002619031118229,2.242487907409668
9535235687,191,9550000000,world,0.8150569200515747,-0.0031034261919558,2.26334810256958
9599869835,192,9600000000,world,0.8585500717163086,-0.0035061107482761,2.298470497131348
9634143879,193,9650000000,world,0.888056755065918,-0.0029523877892643,2.3201825618743896
9694326751,194,9700000000,world,0.9211698770523072,-0.0016608260339125,2.342112302780152
9735635203,195,9750000000,world,0.9558441042900084,-0.0005956899258308,2.368865966796875
9796202114,196,9800000000,world,0.9837856888771056,-0.0018624741351231,2.388757705688477
9834656712,197,9850000000,world,1.01180899143219,-0.0023807235993444,2.4114696979522705
9900192949,198,9900000000,world,1.046397686004639,-0.0010942262597382,2.4332337379455566
9944396266,199,9950000000,world,1.0758830308914185,0.0003978337626904,2.457880735397339
10004168503,200,10000000000,world,1.1074069738388062,-0.003426436567679,2.47516131401062
10042302729,201,10050000000,world,1.132859706878662,-0.0030813869088888,2.499695301055908
10102409206,202,10100000000,world,1.166424036026001,-0.003547275904566,2.518317461013794
10142474315,203,10150000000,world,1.1951595544815063,-0.0045648454688489,2.540411233901977
10207376365,204,10200000000,world,1.2276015281677246,-0.0018151149852201,2.5638175010681152
10237945465,205,10250000000,world,1.2577998638153076,-0.0028824128676205,2.5890464782714844
10298492793,206,10300000000,world,1.2891550064086914,-0.0004569611046463,2.6102724075317383
10351614303,207,10350000000,world,1.3199056386947632,-0.0032828301191329,2.630742073059082
10408976188,208,10400000000,world,1.3483502864837646,-0.0002291279379278,2.6602938175201416
10432011539,209,10450000000,world,1.380537986755371,0.0007286767940968,2.6854248046875
10523517204,210,10500000000,world,1.4101755619049072,0.0021640320774167,2.708235263824463
10552712453,211,10550000000,world,1.442888259887695,0.0001601154799573,2.728605270385742
10601279512,212,10600000000,world,1.4721723794937134,0.0011899903183802,2.751830816268921
10640914489,213,10650000000,world,1.5028464794158936,0.0047599878162145,2.7728748321533203
10705111787,214,10700000000,world,1.5367223024368286,0.0044707106426358,2.795600414276123
10736982072,215,10750000000,world,1.5647705793380735,0.0043060784228146,2.8149185180664062
10806576902,216,10800000000,world,1.5949292182922363,0.0042850193567574,2.8396308422088623
10845180476,217,10850000000,world,1.624786376953125,0.0036565535701811,2.861766576766968
10908166454,218,10900000000,world,1.6526169776916504,0.0033665327355265,2.887824058532715
10931650014,219,10950000000,world,1.6872451305389404,0.0059776580892503,2.913465976715088
11005231832,220,11000000000,world,1.713254690170288,0.0060428790748119,2.9362404346466064
11030645433,221,11050000000,world,1.742108941078186,0.0044979387894272,2.9583539962768555
11100642850,222,11100000000,world,1.773364543914795,0.0046929521486163,2.9813051223754883
11137094258,223,11150000000,world,1.8064686059951784,0.0024825627915561,3.000540256500244
11200110082,224,11200000000,world,1.8408794403076167,0.0050278604030609,3.0244717597961426
11236695455,225,11250000000,world,1.8689318895339968,0.0043018171563744,3.047905683517456
11303636458,226,11300000000,world,1.90065336227417,0.0012192155700176,3.069291114807129
11336682570,227,11350000000,world,1.931460738182068,0.0038251827936619,3.091102123260498
11409106952,228,11400000000,world,1.961700677871704,0.0018691541627049,3.1143951416015625
11433539641,229,11450000000,world,1.9920645952224727,0.0002043817657977,3.13410758972168
11509404116,230,11500000000,world,2.022865295410156,0.0003019805299118,3.156778335571289
11543064888,231,11550000000,world,2.054174900054932,0.0021848627366125,3.180021286010742
11612897176,232,11600000000,world,2.0868847370147705,0.0105725079774856,3.2111892700195312
11642632210,233,11650000000,world,2.120074510574341,0.0116405598819255,3.232694149017334
11711841057,234,11700000000,world,2.1481587886810303,0.007448102813214,3.251341819763184
11742418510,235,11750000000,world,2.1784815788269043,0.0084430603310465,3.273576259613037
11808059503,236,11800000000,world,2.212973117828369,0.0110294464975595,3.2975332736968994
11835546213,237,11850000000,world,2.240571975708008,0.0111066084355115,3.318298816680908
11903030970,238,11900000000,world,2.269968748092652,0.0099156387150287,3.3427000045776367
11938524037,239,11950000000,world,2.30239486694336,0.0094812717288732,3.363763332366944
12007173682,240,12000000000,world,2.330606698989868,0.0063358834013342,3.385989189147949
12050931526,241,12050000000,world,2.365020751953125,0.0046928604133427,3.4098567962646484
12106596703,242,12100000000,world,2.3951609134674072,0.0033031140919774,3.4291372299194336
12141776153,243,12150000000,world,2.42364764213562,0.0031253532506525,3.453655481338501
12200564490,244,12200000000,world,2.4558138847351074,0.0003862010780721,3.4758517742156982
12243013692,245,12250000000,world,2.486605167388916,0.0031270249746739,3.501578092575073
12306602360,246,12300000000,world,2.51860785484314,0.0071297702379524,3.5215320587158203
12334306543,247,12350000000,world,2.547436475753784,0.0048286174423992,3.543675422668457
12398257014,248,12400000000,world,2.579421281814575,0.0062314677052199,3.572760581970215
12436263199,249,12450000000,world,2.612250566482544,0.0037244586274027,3.5932507514953613
12505255282,250,12500000000,world,2.64546799659729,0.0042545916512608,3.6159005165100098
12539692333,251,12550000000,world,2.675399780273437,0.0029678244609385,3.636275291442871
12603716844,252,12600000000,world,2.706698417663574,0.0058810971677303,3.660576820373535
12644757118,253,12650000000,world,2.7390918731689453,0.0047377943992614,3.683163642883301
12702352796,254,12700000000,world,2.7667298316955566,0.0041938605718314,3.706588268280029
12734018640,255,12750000000,world,2.799615859985352,-0.0008968454785645,3.727939128875733
12806198805,256,12800000000,world,2.8283464908599854,0.0017465692944824,3.748743534088135
12834696380,257,12850000000,world,2.86108660697937,0.0030462369322776,3.7703895568847656
12902331914,258,12900000000,world,2.892885684967041,0.0040148980915546,3.7916243076324463
12942415898,259,12950000000,world,2.925027370452881,0.0014580381102859,3.813351631164551
13006550119,260,13000000000,world,2.957399845123291,0.0018114238046109,3.83048152923584
13039871677,261,13050000000,world,2.9889724254608154,0.0017701205797493,3.849998235702514
13122080311,262,13100000000,world,3.0242621898651123,0.0015641245990991,3.868663787841797
13152588255,263,13150000000,world,3.057162284851074,0.0001203927677124,3.886892557144165
13206001220,264,13200000000,world,3.09779691696167,0.0040548997931182,3.9082207679748535
13234223688,265,13250000000,world,3.1291537284851074,0.0012219108175486,3.925439357757568
13306797340,266,13300000000,world,3.159233570098877,-0.0012929707299917,3.940559148788452
13334316618,267,13350000000,world,3.1948957443237305,-0.0025101327337324,3.961732864379883
13411528450,268,13400000000,world,3.2295591831207275,-0.0041091376915574,3.977887153625488
13447218332,269,13450000000,world,3.2637014389038086,-0.0017651477828621,3.9928078651428223
13512208343,270,13500000000,world,3.299654960632324,-0.0056035993620753,4.007752418518066
13542164393,271,13550000000,world,3.335071086883545,-0.0012177701573818,4.022231101989746
13613136487,272,13600000000,world,3.3681936264038086,0.0002130230423063,4.04987907409668
13644402572,273,13650000000,world,3.4009459018707275,-0.0015931644011288,4.068635940551758
13703387756,274,13700000000,world,3.436140775680542,0.0002690041437745,4.087822914123535
13738652423,275,13750000000,world,3.47028923034668,0.0017884285189211,4.108506679534912
13809487906,276,13800000000,world,3.50429916381836,-0.0001942140515893,4.124047756195068
13847067693,277,13850000000,world,3.537778854370117,0.0017293784767389,4.141618728637695
13908073257,278,13900000000,world,3.5683107376098637,-0.0013978006318211,4.159862518310547
13944922986,279,13950000000,world,3.608093023300171,-0.0063394242897629,4.1735520362854
14004933219,280,14000000000,world,3.642320394515991,-0.0097513291984796,4.192630767822266
14035897595,281,14050000000,world,3.67659854888916,-0.010269490070641,4.210014820098877
14114826327,282,14100000000,world,3.711423397064209,-0.0089745409786701,4.223737239837647
14148932338,283,14150000000,world,3.745919704437256,-0.0080599514767527,4.240702629089356
14202870912,284,14200000000,world,3.7829554080963135,-0.0080330558121204,4.26039981842041
14237904489,285,14250000000,world,3.815415859222412,-0.0089547894895076,4.277956962585449
14309082638,286,14300000000,world,3.849514961242676,-0.0105961794033646,4.286259651184082
14343841368,287,14350000000,world,3.8840527534484863,-0.0099579915404319,4.312093257904053
14404366515,288,14400000000,world,3.918824195861816,-0.0077439285814762,4.324481964111328
14434047805,289,14450000000,world,3.95577621459961,-0.0103027410805225,4.334135055541992
14508255618,290,14500000000,world,3.989837646484375,-0.0093437209725379,4.345693588256836
14544886144,291,14550000000,world,4.026347160339356,-0.0117871640250086,4.360444068908691
14601267088,292,14600000000,world,4.06285572052002,-0.0125913759693503,4.373600006103516
14634003708,293,14650000000,world,4.099785804748535,-0.0134774548932909,4.384854316711426
14703289250,294,14700000000,world,4.132246017456055,-0.0116306161507964,4.390077590942383
14735415148,295,14750000000,world,4.166221618652344,-0.0109647633507847,4.405672073364258
14806471973,296,14800000000,world,4.203710079193115,-0.0060293553397059,4.42012357711792
14840493289,297,14850000000,world,4.243601322174072,-0.0030542314052581,4.42476749420166
14904411579,298,14900000000,world,4.278953075408936,-0.0045751286670565,4.42965841293335
14930650640,299,14950000000,world,4.317434310913086,-0.0028683326672762,4.433655738830566
15006547799,300,15000000000,world,4.352927207946777,-0.0024006452877074,4.431372165679932
15050105392,301,15050000000,world,4.391055107116699,-0.0054495632648468,4.445992469787598
15109785597,302,15100000000,world,4.431031227111816,-0.0034409440122544,4.441497325897217
15147383392,303,15150000000,world,4.467771053314209,-0.0015167919918894,4.446930408477783
15199559368,304,15200000000,world,4.504406452178955,-0.0047654919326305,4.448039531707764
15235143560,305,15250000000,world,4.543039321899414,-0.0041167866438627,4.449838161468506
15307135701,306,15300000000,world,4.580999374389648,-0.0090729445219039,4.453908443450928
15340637312,307,15350000000,world,4.618261337280273,-0.0054079554975032,4.458652973175049
15394855927,308,15400000000,world,4.6566362380981445,-0.0036516233813017,4.458889484405518
15440988789,309,15450000000,world,4.695555686950684,-0.0057089631445705,4.470090866088867
15506287895,310,15500000000,world,4.732879638671875,-0.0080803437158465,4.477899551391602
15541004390,311,15550000000,world,4.770662307739258,-0.0014504371210932,4.5006513595581055
15603733792,312,15600000000,world,4.806248188018799,-0.0066381730139255,4.501734733581543
15637412989,313,15650000000,world,4.843327522277832,-0.012077503837645,4.503396034240723
15715117451,314,15700000000,world,4.880185604095459,-0.0065257595852017,4.510802745819092
15743577094,315,15750000000,world,4.917987823486328,-0.0086409226059913,4.521017074584961
15798406741,316,15800000000,world,4.956291198730469,-0.0103978551924228,4.521543502807617
15835436335,317,15850000000,world,4.9939727783203125,-0.012807847931981,4.526998519897461
15907492287,318,15900000000,world,5.030025959014893,-0.0145120387896895,4.5312180519104
15945208522,319,15950000000,world,5.065586090087891,-0.0140947215259075,4.532529830932617
16005113487,320,16000000000,world,5.108814239501953,-0.0016765613108873,4.505566596984863
16042383777,321,16050000000,world,5.144447326660156,-0.0089740715920925,4.5013604164123535
16105953698,322,16100000000,world,5.182521820068359,-0.0022994061000645,4.505381107330322
16138717395,323,16150000000,world,5.220543384552002,-0.0043938877061009,4.498754501342773
16206770285,324,16200000000,world,5.262279033660889,-0.0005179168656468,4.498865604400635
16233917315,325,16250000000,world,5.297369480133057,-0.0028530564159154,4.493762969970703
16310062303,326,16300000000,world,5.333378314971924,-0.0037379348650574,4.484078884124756
16353004068,327,16350000000,world,5.374668121337891,0.0022226013243198,4.500798225402832
16405308879,328,16400000000,world,5.411355495452881,0.0003323033452033,4.490194797515869
16435521421,329,16450000000,world,5.450311183929443,0.0073939338326454,4.483851909637451
16506285561,330,16500000000,world,5.484914302825928,0.0048378519713878,4.473958969116211
16544147061,331,16550000000,world,5.520285129547119,0.0007869824767112,4.464664459228516
16601249820,332,16600000000,world,5.561209201812744,0.0024392083287239,4.461297035217285
16641289107,333,16650000000,world,5.596470355987549,0.0055762901902198,4.441953182220459
16697729459,334,16700000000,world,5.63068962097168,0.0048090890049934,4.430456161499023
16733859654,335,16750000000,world,5.6646728515625,0.0027926843613386,4.418474197387695
16808842375,336,16800000000,world,5.703557968139648,0.0041521862149238,4.408050060272217
16833974049,337,16850000000,world,5.737950801849365,0.0058032125234603,4.39409875869751
16903094177,338,16900000000,world,5.770545482635498,0.0030827447772026,4.377290725708008
16938463646,339,16950000000,world,5.799090385437012,-0.0002285353839397,4.361318588256836
16998701849,340,17000000000,world,5.835171699523926,0.0043439045548439,4.344855308532715
17036296756,341,17050000000,world,5.864245891571045,0.0002277698367834,4.324744701385498
17096503683,342,17100000000,world,5.896885395050049,0.0030678622424602,4.305274486541748
17136317875,343,17150000000,world,5.932039737701416,0.0018774233758449,4.284960746765137
17211116578,344,17200000000,world,5.960603713989258,-0.0027021337300539,4.266635894775391
17240248134,345,17250000000,world,5.989813327789307,-0.0044245719909667,4.242519378662109
17303337807,346,17300000000,world,6.020958423614502,-0.0015320423990488,4.219785690307617
17332371410,347,17350000000,world,6.049081802368164,-0.0034178774803876,4.196879386901856
17399663612,348,17400000000,world,6.085877895355225,-0.0060755154117941,4.172776222229004
17424829871,349,17450000000,world,6.113075256347656,-0.0049873385578393,4.148324966430664
17503342767,350,17500000000,world,6.141068458557129,-0.004053333774209,4.123884201049805
17538383016,351,17550000000,world,6.173563003540039,-0.0044104345142841,4.099388122558594
17599759887,352,17600000000,world,6.202145576477051,-0.0078281657770276,4.0724263191223145
17633844737,353,17650000000,world,6.227148532867432,-0.0050959745422005,4.042349815368652
17702290728,354,17700000000,world,6.250850677490234,-0.0053427638486027,4.014082908630371
17740941471,355,17750000000,world,6.274265289306641,-0.0052300672978162,3.98404598236084
17797035733,356,17800000000,world,6.295722961425781,-0.0051939263939857,3.954844474792481
17833012969,357,17850000000,world,6.314908027648926,-0.0061240568757057,3.921452283859253
17899289761,358,17900000000,world,6.33479118347168,-0.0071885013021528,3.89266037940979
17936999653,359,17950000000,world,6.360641002655029,-0.005005401559174,3.863124370574951
18008956766,360,18000000000,world,6.382681846618652,-0.0064095738343894,3.833315134048462
18063107200,361,18050000000,world,6.404432773590088,-0.006334968842566,3.804359197616577
18108410624,362,18100000000,world,6.428167343139648,-0.0071778264828026,3.7745091915130615
18133161085,363,18150000000,world,6.451575756072998,-0.0042429286986589,3.745847702026367
18213198274,364,18200000000,world,6.477061748504639,-0.003958286717534,3.7166049480438232
18246995984,365,18250000000,world,6.4976487159729,-0.0040718857198953,3.686549186706543
18305718836,366,18300000000,world,6.520155906677246,-0.0047100018709897,3.6582868099212646
18345786523,367,18350000000,world,6.54249906539917,-0.0077024735510349,3.627865076065064
18399938240,368,18400000000,world,6.5688252449035645,-0.0034841578453779,3.5957143306732178
18428394653,369,18450000000,world,6.589433193206787,-0.0017668902873992,3.566096544265747
18504666212,370,18500000000,world,6.615211009979248,-0.0002746507525444,3.5367352962493896
18540369769,371,18550000000,world,6.64122486114502,-0.0019824355840682,3.507299900054932
18599338543,372,18600000000,world,6.662366390228272,-0.0023600850254297,3.4781227111816406
18634209211,373,18650000000,world,6.684963226318359,-0.0027213785797357,3.4487788677215576
18702947101,374,18700000000,world,6.710224628448486,-0.0019567664712667,3.419397592544556
18736539447,375,18750000000,world,6.734793186187744,-0.0020871851593255,3.389821529388428
18797712572,376,18800000000,world,6.755619049072266,-0.0027246680110692,3.36067008972168
18846108333,377,18850000000,world,6.778515815734863,0.0021131113171577,3.332420587539673
18908776487,378,18900000000,world,6.804955959320068,-3.16128134727478e-05,3.303692102432251
18943474272,379,18950000000,world,6.827191352844238,-0.0007757991552352,3.273299217224121
18999872424,380,19000000000,world,6.849310398101807,0.0016228631138801,3.244732141494751
19030751559,381,19050000000,world,6.875105857849121,-0.0002491734921932,3.215127468109131
19105754964,382,19100000000,world,6.898894786834717,-0.002258475869894,3.1853482723236084
19142712976,383,19150000000,world,6.923564434051514,0.0009869188070297,3.156696319580078
19208404034,384,19200000000,world,6.945056438446045,-0.0004860237240791,3.12613582611084
19253376491,385,19250000000,world,6.970019340515137,0.0037542954087257,3.097822666168213
19314439403,386,19300000000,world,6.992527961730957,0.0036242343485355,3.068984031677246
19333762757,387,19350000000,world,7.020308971405029,0.0037420578300952,3.0390162467956543
19398346205,388,19400000000,world,7.040450096130371,0.003067210316658,3.009718418121338
19437516718,389,19450000000,world,7.065122127532959,0.0042057633399963,2.9809765815734863
19501575558,390,19500000000,world,7.089014053344727,0.003951258957386,2.9504098892211914
19550376410,391,19550000000,world,7.11290454864502,0.0029480308294296,2.921541213989258
19603769429,392,19600000000,world,7.13694429397583,0.0025405324995517,2.8920249938964844
19643176864,393,19650000000,world,7.158827304840088,0.0054918751120567,2.86273193359375
19700895952,394,19700000000,world,7.184037208557129,0.0040216594934463,2.833091735839844
19747799021,395,19750000000,world,7.2081708908081055,0.0027159601449966,2.803236484527588
19805779646,396,19800000000,world,7.232817649841309,0.0010706819593906,2.7728676795959477
19831950303,397,19850000000,world,7.254627227783203,0.0014725103974342,2.7441186904907227
19914220991,398,19900000000,world,7.281155586242676,-0.0011203661561012,2.714480400085449
19943036134,399,19950000000,world,7.305479049682617,0.0008983463048934,2.684584140777588
20003350797,400,20000000000,world,7.332396507263184,-0.0009155161678791,2.6585097312927246
20043874056,401,20050000000,world,7.357099056243896,0.0003342702984809,2.6283822059631348
20106921994,402,20100000000,world,7.378977298736572,0.0004843696951866,2.597914695739746
20149106636,403,20150000000,world,7.402975082397461,-0.0017693676054477,2.567959308624268
20206408193,404,20200000000,world,7.426902770996094,-0.0002526603639125,2.539669990539551
20230797674,405,20250000000,world,7.451478004455566,-0.0010564066469669,2.510133743286133
20297750105,406,20300000000,world,7.479516983032227,-0.0009566508233547,2.478398323059082
20336552127,407,20350000000,world,7.504197120666504,-0.0030555874109268,2.4485888481140137
20395865534,408,20400000000,world,7.52550458908081,-0.0020260587334632,2.4182729721069336
20441492754,409,20450000000,world,7.550938129425049,-0.0016965270042419,2.3854880332946777
20506387362,410,20500000000,world,7.5694990158081055,-0.0032172426581382,2.3548731803894043
20540632355,411,20550000000,world,7.587129592895508,-0.0020206533372402,2.3223812580108643
20602810654,412,20600000000,world,7.607016563415527,-0.000470146536827,2.288174629211426
20635843971,413,20650000000,world,7.626318454742432,-0.0004961937665939,2.2565805912017822
20698295441,414,20700000000,world,7.641722202301025,0.0010197311639785,2.2219126224517822
20746334110,415,20750000000,world,7.659069061279297,0.0023497641086578,2.188791513442993
20798418185,416,20800000000,world,7.680220127105713,-0.0007525272667407,2.1547656059265137
20841878672,417,20850000000,world,7.694937705993652,0.0032965317368507,2.1183102130889893
20894904684,418,20900000000,world,7.7116899490356445,0.0041417628526687,2.0838441848754883
20934867990,419,20950000000,world,7.730897903442383,-9.130686521530151e-05,2.0474777221679688
20992867112,420,21000000000,world,7.752160549163818,-0.0004099309444427,2.0129148960113525
21031124221,421,21050000000,world,7.763471603393555,-0.0060555581003427,1.9721450805664065
21110442497,422,21100000000,world,7.780227184295654,-0.0086773373186588,1.940615177154541
21144854399,423,21150000000,world,7.79314661026001,-0.007170321419835,1.9076311588287356
21217451811,424,21200000000,world,7.806768894195557,-0.0054370164871215,1.8742516040802
21239334760,425,21250000000,world,7.825990200042725,-0.0061025209724903,1.838158369064331
21299949552,426,21300000000,world,7.840298175811768,-0.006931209936738,1.805314540863037
21328245599,427,21350000000,world,7.859245777130127,-0.0037416592240333,1.7693431377410889
21400747995,428,21400000000,world,7.873064994812012,-0.0055690705776214,1.7357831001281738
21437094632,429,21450000000,world,7.887263774871826,-0.0060676410794258,1.702263593673706
21507202677,430,21500000000,world,7.907061100006103,-0.0047645345330238,1.666743516921997
21549915386,431,21550000000,world,7.919695854187012,-0.0028901062905788,1.6347882747650146
21608677077,432,21600000000,world,7.938055038452148,-0.0031125210225582,1.5996143817901611
21631344628,433,21650000000,world,7.952569007873535,-0.0026330351829528,1.5666625499725342
21704942621,434,21700000000,world,7.967475414276123,-0.002279095351696,1.5306034088134766
21738155227,435,21750000000,world,7.986191749572754,-0.0043007172644138,1.494732141494751
21809786174,436,21800000000,world,8.002701759338379,-0.0055925361812114,1.4611260890960691
21846190417,437,21850000000,world,8.018396377563477,-0.0057553201913833,1.4265692234039309
21909884677,438,21900000000,world,8.030998229980469,-0.0034811832010746,1.3934414386749268
21942901821,439,21950000000,world,8.04916763305664,-0.0035348460078239,1.3583765029907229
22007349938,440,22000000000,world,8.073368072509766,-0.0032854340970516,1.3162527084350586
22043615859,441,22050000000,world,8.086853981018066,-0.0047221146523952,1.283813238143921
22099932286,442,22100000000,world,8.105493545532227,-0.0035701021552085,1.247443437576294
22137629460,443,22150000000,world,8.119424819946289,-0.0034544542431831,1.2117397785186768
22209421766,444,22200000000,world,8.132829666137695,-0.0043356157839298,1.177049160003662
22235423897,445,22250000000,world,8.14477825164795,-0.0072183907032012,1.14363694190979
22300969693,446,22300000000,world,8.157323837280273,-0.0061374828219413,1.1081974506378174
22338772308,447,22350000000,world,8.16307258605957,-0.0116976350545883,1.0793488025665283
22401274341,448,22400000000,world,8.180356979370117,-0.0028354786336421,1.0299538373947144
22432264644,449,22450000000,world,8.187667846679688,-0.005600806325674,0.9945120811462402
22514469012,450,22500000000,world,8.201912879943848,-0.0066125430166721,0.9589083194732666
22546309361,451,22550000000,world,8.210254669189453,-0.0061291344463825,0.925704538822174
22598806848,452,22600000000,world,8.218246459960938,-0.0060766451060771,0.8889830112457275
22633386489,453,22650000000,world,8.226547241210938,-0.0055788084864616,0.8503226637840271
22702179569,454,22700000000,world,8.232215881347656,-0.0052107460796833,0.8108569383621216
22744499487,455,22750000000,world,8.235519409179688,-0.0090734921395778,0.7775012254714966
22815940919,456,22800000000,world,8.237412452697754,-0.0077175050973892,0.737015962600708
22840897556,457,22850000000,world,8.240203857421875,-0.0063627175986766,0.6983038187026978
22905640707,458,22900000000,world,8.24006462097168,-0.0072259008884429,0.662774920463562
22941715578,459,22950000000,world,8.239341735839844,-0.0071459487080574,0.6250860691070557
23006429766,460,23000000000,world,8.235336303710938,-0.0078864842653274,0.5918557643890381
23036552476,461,23050000000,world,8.23327350616455,-0.0047510229051113,0.5498483180999756
23116013883,462,23100000000,world,8.231374740600586,-0.0075492653995752,0.5049209594726562
23134999586,463,23150000000,world,8.227476119995117,-0.0067933518439531,0.4652037620544433
23195657824,464,23200000000,world,8.219905853271484,-0.0081166792660951,0.4295186996459961
23240288892,465,23250000000,world,8.211593627929688,-0.0080206152051687,0.3941879272460937
23313977866,466,23300000000,world,8.20186710357666,-0.0079102907329797,0.3568649291992187
23332533679,467,23350000000,world,8.192699432373047,-0.0059069478884339,0.3239035606384277
23399483960,468,23400000000,world,8.174915313720703,-0.0090943817049264,0.290748119354248
23429808166,469,23450000000,world,8.163347244262695,-0.0128498552367091,0.2580671310424804
23499311710,470,23500000000,world,8.14500617980957,-0.0088701471686363,0.2201428413391113
23532675419,471,23550000000,world,8.12942886352539,0.0021206620149314,0.1725049018859863
23601192069,472,23600000000,world,8.118610382080078,-0.0049606836400926,0.1306009292602539
23631036100,473,23650000000,world,8.100259780883789,0.0040952148847281,0.1029396057128906
23701752508,474,23700000000,world,8.078195571899414,0.0036164256744086,0.0701632499694824
23734930793,475,23750000000,world,8.056779861450195,0.0022863838821649,0.0396356582641601
23800847683,476,23800000000,world,8.034821510314941,-0.0006332471966743,0.0070643424987792
23835153661,477,23850000000,world,8.016349792480469,0.0006817374378442,-0.0237293243408203
23896387364,478,23900000000,world,7.993473529815674,-0.0039267819374799,-0.0537514686584472
23943051282,479,23950000000,world,7.974923610687256,-0.00037607178092,-0.087803840637207
24002383738,480,24000000000,world,7.95545482635498,-0.0049647837877273,-0.1153697967529296
24042230896,481,24050000000,world,7.934783935546875,0.00121939368546,-0.1524944305419922
24094678321,482,24100000000,world,7.915144920349121,0.0062323156744241,-0.1812562942504882
24138401691,483,24150000000,world,7.894008159637451,-0.002308614552021,-0.2144603729248047
24197037908,484,24200000000,world,7.875107765197754,0.001509016379714,-0.2471194267272949
24232278740,485,24250000000,world,7.854533672332764,0.0014740610495209,-0.2777719497680664
24309521385,486,24300000000,world,7.834922790527344,0.0023363502696156,-0.3101062774658203
24350963240,487,24350000000,world,7.814988136291504,0.0010225772857666,-0.3441972732543945
24409526450,488,24400000000,world,7.794199466705322,0.0012237355113029,-0.3825078010559082
24440098079,489,24450000000,world,7.771884441375732,-0.0013273693621158,-0.4116091728210449
24515554008,490,24500000000,world,7.756321907043457,-0.0002191420644521,-0.4468922615051269
24539800880,491,24550000000,world,7.731389045715332,0.0054568713530898,-0.4784789085388183
24599117362,492,24600000000,world,7.7120466232299805,0.0002574166283011,-0.5055680274963379
24637970977,493,24650000000,world,7.693576335906982,-0.0016140360385179,-0.5407891273498535
24707548292,494,24700000000,world,7.676962852478027,0.0001157512888312,-0.5721859931945801
24730914494,495,24750000000,world,7.656354904174805,-0.000968798995018,-0.6041007041931152
24805434377,496,24800000000,world,7.634082794189453,0.0013729156926274,-0.635566234588623
24844942863,497,24850000000,world,7.615344047546387,0.0026721721515059,-0.6696271896362305
24908107122,498,24900000000,world,7.59529972076416,0.0015419949777424,-0.7005367279052734
24938165100,499,24950000000,world,7.576864719390869,0.0043711708858609,-0.7328310012817383
25004930193,500,25000000000,world,7.542463302612305,0.0042931009083986,-0.7721319198608398
25035600306,501,25050000000,world,7.52352237701416,0.0048940028063952,-0.8053140640258789
25099821388,502,25100000000,world,7.500449180603027,0.0058042891323566,-0.8379421234130859
25134710552,503,25150000000,world,7.477332592010498,0.0029522757977247,-0.8643364906311035
25202193809,504,25200000000,world,7.457150459289551,0.0035102544352412,-0.8966116905212402
25238512317,505,25250000000,world,7.433931350708008,0.0064918985590338,-0.9233145713806152
25294695656,506,25300000000,world,7.407031059265137,0.0057904757559299,-0.9493346214294434
25342478980,507,25350000000,world,7.381513595581055,0.005347809754312,-0.9803767204284668
25399340867,508,25400000000,world,7.353319644927978,0.0055435951799154,-1.0011110305786133
25437212047,509,25450000000,world,7.3213043212890625,0.0091840475797653,-1.0370264053344729
25509818136,510,25500000000,world,7.291118621826172,0.0083223553374409,-1.059126377105713
25545032799,511,25550000000,world,7.258775234222412,0.0080347172915935,-1.0824551582336426
25611988219,512,25600000000,world,7.229414939880371,0.0076762689277529,-1.1046996116638184
25631315579,513,25650000000,world,7.200555324554443,0.0041097840294241,-1.1321706771850586
25699617194,514,25700000000,world,7.172130584716797,0.0052423807792365,-1.1582684516906738
25737533934,515,25750000000,world,7.13911771774292,0.0057692411355674,-1.1809439659118652
25799138572,516,25800000000,world,7.108135223388672,0.0057915979996323,-1.2044615745544434
25838675787,517,25850000000,world,7.082555770874023,0.0047540948726236,-1.2273764610290527
25901298507,518,25900000000,world,7.053876876831055,0.0059596318751573,-1.250077724456787
25934059924,519,25950000000,world,7.024264335632324,0.0054022083058953,-1.2742695808410645
26005989360,520,26000000000,world,6.993736267089844,0.0055943029001355,-1.2980427742004397
26054832065,521,26050000000,world,6.964775085449219,0.0048649264499545,-1.3218998908996582
26104181977,522,26100000000,world,6.9303154945373535,0.0013153338804841,-1.354189395904541
26135281864,523,26150000000,world,6.902775764465332,0.0021836999803781,-1.3791141510009766
26210294161,524,26200000000,world,6.875683784484863,0.0016746260225772,-1.4018988609313965
26241457731,525,26250000000,world,6.844504356384277,0.0012830737978219,-1.4237685203552246
26304962367,526,26300000000,world,6.810544967651367,0.0026489766314625,-1.4544601440429688
26331411634,527,26350000000,world,6.781722068786621,0.0020376481115818,-1.4779386520385742
26395987828,528,26400000000,world,6.7548346519470215,-0.0019004512578248,-1.5002508163452148
26431765377,529,26450000000,world,6.723905563354492,0.0019098371267318,-1.528214454650879
26506063572,530,26500000000,world,6.69035530090332,0.0018006768077611,-1.5533294677734375
26545610790,531,26550000000,world,6.6603522300720215,0.0033526904881,-1.576794147491455
26609535966,532,26600000000,world,6.634591102600098,0.0005526300519704,-1.598909854888916
26636547325,533,26650000000,world,6.600000858306885,-0.0011012703180313,-1.6213555335998535
26717096669,534,26700000000,world,6.570791721343994,0.00104078091681,-1.6480093002319336
26743033110,535,26750000000,world,6.5409088134765625,-8.72090458869934e-06,-1.6692500114440918
26806771286,536,26800000000,world,6.510526657104492,-2.649053931236267e-05,-1.69404935836792
26840388825,537,26850000000,world,6.478236198425293,0.0023205764591693,-1.7202630043029783
26890623083,538,26900000000,world,6.4513702392578125,0.0025380197912454,-1.742381572723389
26932835579,539,26950000000,world,6.420676708221436,0.0005365423858165,-1.7672514915466309
27000869259,540,27000000000,world,6.386882305145264,0.002197602763772,-1.797062873840332
27030105367,541,27050000000,world,6.353999614715576,0.0044550523161888,-1.82383394241333
27099348276,542,27100000000,world,6.327735900878906,0.0012217499315738,-1.8430752754211424
27137832393,543,27150000000,world,6.294201850891113,0.0020157638937234,-1.8737969398498533
27196705418,544,27200000000,world,6.26438045501709,0.0026392303407192,-1.8969178199768064
27248709862,545,27250000000,world,6.232579231262207,0.0028474144637584,-1.9221749305725095
27308361297,546,27300000000,world,6.204094886779785,0.0025086682289838,-1.9447689056396484
27345896654,547,27350000000,world,6.174642562866211,0.0040230620652437,-1.97029972076416
27411748440,548,27400000000,world,6.143924713134766,0.0028462894260883,-1.9918866157531736
27433467270,549,27450000000,world,6.1150007247924805,0.0022319667041301,-2.016995906829834
27500399805,550,27500000000,world,6.084001064300537,0.0027225036174058,-2.040646553039551
27538553923,551,27550000000,world,6.053085803985596,0.0018489249050617,-2.064304828643799
27617552461,552,27600000000,world,6.022613525390625,0.0025307983160018,-2.083972454071045
27637539638,553,27650000000,world,5.990633964538574,0.00400095526129,-2.1059365272521973
27701199913,554,27700000000,world,5.959342002868652,0.0026544202119112,-2.128980159759521
27741959521,555,27750000000,world,5.925188064575195,0.0044652577489614,-2.147641181945801
27815778619,556,27800000000,world,5.894869804382324,0.0030258242040872,-2.165228843688965
27847877666,557,27850000000,world,5.860102653503418,0.0044711027294397,-2.186041831970215
27911411864,558,27900000000,world,5.826239585876465,0.0036647673696279,-2.204289436340332
27947647192,559,27950000000,world,5.787060737609863,0.0045488597825169,-2.22330379486084
27992334485,560,28000000000,world,5.754232883453369,0.0030900072306394,-2.2372021675109863
28038852460,561,28050000000,world,5.719089508056641,0.0045571569353342,-2.2551560401916504
28105268973,562,28100000000,world,5.684877872467041,0.0048870285972952,-2.269984245300293
28139890125,563,28150000000,world,5.649994850158691,0.0044672433286905,-2.285472869873047
28201729027,564,28200000000,world,5.61562967300415,0.0052619539201259,-2.3012375831604004
28249474337,565,28250000000,world,5.580671310424805,0.0047464352101087,-2.3176331520080566
28309661928,566,28300000000,world,5.544078826904297,0.0064203944057226,-2.3395228385925293
28325792671,567,28350000000,world,5.509325981140137,0.0063451202586293,-2.357532024383545
28401538178,568,28400000000,world,5.473338127136231,0.0052739568054676,-2.37210464477539
28438920026,569,28450000000,world,5.438106060028076,0.0050871279090642,-2.385554313659668
28510780555,570,28500000000,world,5.404571533203125,0.0048682112246751,-2.398609161376953
28544574177,571,28550000000,world,5.368125915527344,0.0061814058572053,-2.4112796783447266
28610404776,572,28600000000,world,5.330974578857422,0.0047303233295679,-2.4253463745117188
28641240487,573,28650000000,world,5.29612398147583,0.0053866077214479,-2.4361119270324707
28704521252,574,28700000000,world,5.258953094482422,0.0056118201464414,-2.446755886077881
28747336491,575,28750000000,world,5.223786354064941,0.0045176558196544,-2.453521251678467
28816632040,576,28800000000,world,5.186075687408447,0.0058841332793235,-2.4647579193115234
28851005003,577,28850000000,world,5.14830493927002,0.0047700181603431,-2.472900867462158
28900496340,578,28900000000,world,5.113528251647949,0.0046442821621894,-2.479325771331787
28940771985,579,28950000000,world,5.07635498046875,0.0004752185195684,-2.487642288208008
28996725242,580,29000000000,world,5.038830757141113,0.002158174291253,-2.4918909072875977
29044398144,581,29050000000,world,5.000888347625732,0.0019036270678043,-2.498600482940674
29103211840,582,29100000000,world,4.955888748168945,0.0048082964494824,-2.5068235397338867
29138177555,583,29150000000,world,4.917941570281982,0.0065245232544839,-2.5114450454711914
29205101961,584,29200000000,world,4.877594947814941,0.0077293505892157,-2.51023530960083
29236001257,585,29250000000,world,4.84373950958252,0.0068155229091644,-2.5085787773132324
29303605316,586,29300000000,world,4.805300235748291,0.0070547610521316,-2.5071821212768555
29344352839,587,29350000000,world,4.76661491394043,0.0069173551164567,-2.5036091804504395
29404954632,588,29400000000,world,4.723315238952637,0.0121568599715828,-2.5004258155822754
29438991517,589,29450000000,world,4.691429138183594,0.0058376817032694,-2.4941720962524414
29511058683,590,29500000000,world,4.646332740783691,0.0073831975460052,-2.49239444732666
29539468754,591,29550000000,world,4.60563850402832,0.008565885014832,-2.4867143630981445
29611380057,592,29600000000,world,4.567726135253906,0.0074350503273308,-2.4788079261779785
29640747988,593,29650000000,world,4.52620267868042,0.0085322968661785,-2.4784154891967773
29702886858,594,29700000000,world,4.489622116088867,0.0055172275751829,-2.467491626739502
29732773802,595,29750000000,world,4.454207420349121,0.0087329614907503,-2.4594898223876958
29805727622,596,29800000000,world,4.414216995239258,0.008189707994461,-2.4546613693237305
29841466628,597,29850000000,world,4.376726150512695,0.0069216829724609,-2.4498682022094727
29906520769,598,29900000000,world,4.336994171142578,0.0102527625858783,-2.4509117603302
29943500252,599,29950000000,world,4.303304672241211,0.0113156586885452,-2.4428863525390625
30015012935,600,30000000000,world,4.26177453994751,0.0093075735494494,-2.438504219055176
30051923016,601,30050000000,world,4.225175857543945,0.0096214041113853,-2.431870460510254
30109304464,602,30100000000,world,4.186898708343506,0.0105482395738363,-2.425246000289917
30144521933,603,30150000000,world,4.147148609161377,0.011734515428543,-2.423216819763184
30205772955,604,30200000000,world,4.111236095428467,0.0099295740947127,-2.4155492782592773
30238277833,605,30250000000,world,4.073534965515137,0.0099809719249606,-2.410301923751831
30304453262,606,30300000000,world,4.03627347946167,0.0111099518835544,-2.40451979637146
30341280585,607,30350000000,world,4.001084804534912,0.0114768231287598,-2.3979477882385254
30404830827,608,30400000000,world,3.960361003875733,0.0112788137048482,-2.392096281051636
30452179556,609,30450000000,world,3.92260217666626,0.010858129709959,-2.3866400718688965
30518587210,610,30500000000,world,3.887524366378784,0.0105300871655344,-2.38026762008667
30539363014,611,30550000000,world,3.850282669067383,0.0126132378354668,-2.3698320388793945
30607912553,612,30600000000,world,3.8120484352111816,0.0124174272641539,-2.3616926670074463
30641876771,613,30650000000,world,3.774462938308716,0.0121659645810723,-2.3473496437072754
30704673086,614,30700000000,world,3.743736982345581,0.0156985502690076,-2.332085132598877
30736289053,615,30750000000,world,3.708207130432129,0.0154625093564391,-2.31611442565918
30804967242,616,30800000000,world,3.6708908081054688,0.0147039974108338,-2.302856683731079
30852581675,617,30850000000,world,3.635634899139404,0.015002641826868,-2.2882609367370605
30906287579,618,30900000000,world,3.6022815704345703,0.0158998481929302,-2.272233009338379
30938334507,619,30950000000,world,3.5593149662017822,0.0128425657749176,-2.261134147644043
31010509204,620,31000000000,world,3.515185832977295,0.0133200325071811,-2.249098777770996
31044766616,621,31050000000,world,3.482352495193481,0.0136615084484219,-2.2319374084472656
31120425375,622,31100000000,world,3.444958209991455,0.012394355610013,-2.2187719345092773
31143918168,623,31150000000,world,3.409313440322876,0.0133277857676148,-2.205374956130981
31206583867,624,31200000000,world,3.373120784759521,0.0142462272197008,-2.190136194229126
31241240042,625,31250000000,world,3.337238311767578,0.0133515764027833,-2.177811622619629
31303599929,626,31300000000,world,3.30535101890564,0.0159593597054481,-2.156709909439087
31331667882,627,31350000000,world,3.271061420440674,0.0147048942744731,-2.143634080886841
31408114559,628,31400000000,world,3.2351503372192383,0.0163602232933044,-2.130105495452881
31450030092,629,31450000000,world,3.1999311447143555,0.0148799624294042,-2.112731456756592
31502529741,630,31500000000,world,3.1658132076263428,0.0145308673381805,-2.100425958633423
31543749976,631,31550000000,world,3.1281394958496094,0.0151055278256535,-2.08535099029541
31600169056,632,31600000000,world,3.090479850769043,0.0135060381144285,-2.070475816726685
31637860772,633,31650000000,world,3.056714534759521,0.0120760118588805,-2.0564188957214355
31711437352,634,31700000000,world,3.0244741439819336,0.013648678548634,-2.0399720668792725
31745685498,635,31750000000,world,2.990321636199951,0.0147068044170737,-2.02193021774292
31812162617,636,31800000000,world,2.956202745437622,0.0140655618160963,-2.004768133163452
31863600199,637,31850000000,world,2.9204907417297363,0.0138499606400728,-1.987269401550293
31913999037,638,31900000000,world,2.8872241973876958,0.0139999967068433,-1.9688950777053835
31942147799,639,31950000000,world,2.853949546813965,0.0127885229885578,-1.9539098739624023
32008218284,640,32000000000,world,2.820064067840576,0.0139974532648921,-1.9358937740325928
32050263213,641,32050000000,world,2.788093328475952,0.0138705540448427,-1.917424201965332
32123295363,642,32100000000,world,2.7569692134857178,0.0135246748104691,-1.9009884595870967
32146516883,643,32150000000,world,2.7237980365753174,0.0133566157892346,-1.8831794261932373
32203302011,644,32200000000,world,2.6900761127471924,0.0142986746504902,-1.865833759307861
32249697631,645,32250000000,world,2.655578136444092,0.0129280555993318,-1.8490163087844849
32301500588,646,32300000000,world,2.620918273925781,0.0127255413681268,-1.8326419591903689
32348719312,647,32350000000,world,2.5894761085510254,0.0127447331324219,-1.8155704736709597
32424595524,648,32400000000,world,2.556823492050171,0.0110999140888452,-1.7984479665756226
32489268495,649,32450000000,world,2.523862600326538,0.0110101327300071,-1.7808281183242798
32557706295,650,32500000000,world,2.4898455142974854,0.0114396028220653,-1.7626506090164185
32591960139,651,32550000000,world,2.4580767154693604,0.0109756812453269,-1.7453923225402832
32625112904,652,32600000000,world,2.4254958629608154,0.010494383983314,-1.7282111644744873
32649885357,653,32650000000,world,2.389866352081299,0.0125999981537461,-1.7083473205566406
32714463818,654,32700000000,world,2.3579719066619877,0.0116376765072345,-1.6920489072799685
32744331861,655,32750000000,world,2.322444438934326,0.013777732849121,-1.672035813331604
32802221130,656,32800000000,world,2.290088176727295,0.0140046095475554,-1.653285264968872
32842394638,657,32850000000,world,2.2546310424804688,0.0123748173937201,-1.6376609802246094
32910320365,658,32900000000,world,2.224015235900879,0.0126513158902525,-1.618677020072937
32935219697,659,32950000000,world,2.190850257873535,0.0087961498647928,-1.5974539518356323
33006743113,660,33000000000,world,2.1588335037231445,0.0079200565814971,-1.583959698677063
33033673844,661,33050000000,world,2.1257095336914062,0.0074935900047421,-1.5655816793441772
33102236189,662,33100000000,world,2.090210437774658,0.0073822643607854,-1.5485832691192627
33135570652,663,33150000000,world,2.05659818649292,0.0094079580157995,-1.530233383178711
