%time,seq,stamp,frame_id,child_frame_id,x,y,z
0,0,0,world,base_link,0.0,0.0,0.0
8704648,1,20000000,world,base_link,0.0,4.440892098500626e-16,-2.2200991045551177e-14
30368723,2,40000000,world,base_link,7.105427357601002e-15,1.7763568394002505e-15,-4.629976957382098e-14
54524153,3,60000000,world,base_link,2.646771690706373e-13,4.0190073491430667e-13,-3.715000529425083e-12
67797987,4,80000000,world,base_link,2.6290081223123707e-13,4.0101255649460654e-13,-3.715000529425083e-12
93947366,5,100000000,world,base_link,2.6290081223123707e-13,4.005684672847565e-13,-3.715000529425083e-12
106838005,6,120000000,world,base_link,1.5987211554602254e-14,-4.707345624410664e-14,3.6760178234729324e-13
133708855,7,140000000,world,base_link,1.5987211554602254e-14,-4.8405723873656825e-14,3.724000274818451e-13
150867806,8,160000000,world,base_link,1.4210854715202004e-14,-5.1514348342607263e-14,3.912009605144817e-13
206693064,9,180000000,world,base_link,1.4210854715202004e-14,-5.3290705182007514e-14,3.988996633008668e-13
206743740,10,200000000,world,base_link,-8.881784197001252e-15,-1.5987211554602254e-14,1.4080056565113352e-13
266564465,11,220000000,world,base_link,-8.881784197001252e-15,-1.7319479184152442e-14,1.352008782706804e-13
266601549,12,240000000,world,base_link,-7.105427357601002e-15,-1.6431300764452317e-14,1.2340128918708615e-13
266611473,13,260000000,world,base_link,0.0,-1.5987211554602254e-14,5.150047055479945e-14
316509931,14,280000000,world,base_link,0.0,-1.554312234475219e-14,3.24011650842948e-14
316535851,15,300000000,world,base_link,-1.1901590823981678e-13,2.948752353404416e-13,-1.514899317101026e-12
322233339,16,320000000,world,base_link,-1.2079226507921703e-13,2.9265478929119126e-13,-1.5090984017973597e-12
347871246,17,340000000,world,base_link,-1.1901590823981678e-13,2.9176661087149114e-13,-1.5062014135924784e-12
406616921,18,360000000,world,base_link,6.394884621840902e-14,-5.3290705182007514e-14,4.839878497975292e-14
406651457,19,380000000,world,base_link,6.927791673660977e-14,-5.3290705182007514e-14,4.459974056736371e-14
406683143,20,400000000,world,base_link,6.394884621840902e-14,-5.595524044110789e-14,5.299927163804341e-14
466524948,21,420000000,world,base_link,-1.9539925233402755e-14,-1.3322676295501878e-14,1.5400875019722093e-14
466546570,22,440000000,world,base_link,-1.5987211554602254e-14,-1.3322676295501878e-14,-3.5006719745211967e-15
466550166,23,460000000,world,base_link,-1.5987211554602254e-14,-1.3322676295501878e-14,-2.610064941954704e-14
516677621,24,480000000,world,base_link,-1.5987211554602254e-14,-1.3322676295501878e-14,-4.990105550994883e-14
516718999,25,500000000,world,base_link,2.4513724383723456e-13,3.8768988019910466e-13,-3.715000529425083e-12
542279021,26,520000000,world,base_link,2.4513724383723456e-13,3.8680170177940454e-13,-3.715000529425083e-12
542303907,27,540000000,world,base_link,2.4513724383723456e-13,3.8680170177940454e-13,-3.71510114338669e-12
586673295,28,560000000,world,base_link,-5.329070518200751e-15,-6.128431095930864e-14,3.6790015478516125e-13
586719128,29,580000000,world,base_link,-3.552713678800501e-15,-6.217248937900877e-14,3.7270186936666505e-13
637087975,30,600000000,world,base_link,-7.105427357601002e-15,-6.52811138479592e-14,3.913987189907431e-13
637338915,31,620000000,world,base_link,-2.6645352591003757e-14,-2.930988785010413e-14,1.4899886879859991e-13
637397648,32,640000000,world,base_link,-2.4868995751603507e-14,-2.930988785010413e-14,1.3910053664467625e-13
696535999,33,660000000,world,base_link,-2.6645352591003757e-14,-2.9753977059954195e-14,1.3319900737940316e-13
696559048,34,680000000,world,base_link,-2.6645352591003757e-14,-3.108624468950438e-14,1.2160064621902222e-13
696571692,35,700000000,world,base_link,-1.9539925233402755e-14,-3.019806626980426e-14,4.940145514886751e-14
746858147,36,720000000,world,base_link,-1.5987211554602254e-14,-2.930988785010413e-14,3.049990815462422e-14
746893172,37,740000000,world,base_link,-1.3855583347321954e-13,2.8066438062523957e-13,-1.5146980891778128e-12
772779399,38,760000000,world,base_link,-1.438849039914203e-13,2.788880237858393e-13,-1.5089006433210983e-12
772809672,39,780000000,world,base_link,-1.3855583347321954e-13,2.788880237858393e-13,-1.506000185669265e-12
826598151,40,800000000,world,base_link,4.440892098500626e-14,-6.616929226765933e-14,4.820102650349156e-14
826630373,41,820000000,world,base_link,4.440892098500626e-14,-6.838973831690964e-14,5.809935865741522e-14
886714429,42,840000000,world,base_link,4.796163466380676e-14,-6.927791673660977e-14,5.1899456954274115e-14
886763023,43,860000000,world,base_link,-3.552713678800501e-14,-2.708944180085382e-14,1.2399803406282217e-14
936771478,44,880000000,world,base_link,-3.552713678800501e-14,-2.7533531010703882e-14,-6.1999017031411086e-15
936815514,45,900000000,world,base_link,-3.552713678800501e-14,-2.7533531010703882e-14,-2.8699265186560297e-14
936830040,46,920000000,world,base_link,-3.197442310920451e-14,-2.6645352591003757e-14,-5.220129883909408e-14
986720629,47,940000000,world,base_link,2.255973186038318e-13,3.7481129311345285e-13,-3.71510114338669e-12
986757640,48,960000000,world,base_link,2.255973186038318e-13,3.739231146937527e-13,-3.715000529425083e-12
992349293,49,980000000,world,base_link,2.255973186038318e-13,3.7347902548390266e-13,-3.71510114338669e-12
1013323531,50,1000000000,world,base_link,-2.6645352591003757e-14,-7.37188088351104e-14,3.6810138270837456e-13
1056687951,51,1020000000,world,base_link,-2.4868995751603507e-14,-7.638334409421077e-14,3.878009025015672e-13
1056751072,52,1040000000,world,base_link,-2.3092638912203256e-14,-7.771561172376096e-14,3.9250200312146433e-13
1056766383,53,1060000000,world,base_link,-4.796163466380676e-14,-4.263256414560601e-14,1.473994537537493e-13
1106686712,54,1080000000,world,base_link,-4.796163466380676e-14,-4.3520742565306136e-14,1.376017355614323e-13
1112764423,55,1100000000,world,base_link,-4.440892098500626e-14,-4.39648317751562e-14,1.319014342193725e-13
1166622861,56,1120000000,world,base_link,-4.440892098500626e-14,-4.39648317751562e-14,1.2040021757364627e-13
1166680850,57,1140000000,world,base_link,-3.907985046680551e-14,-4.3076653355456074e-14,4.78991846186716e-14
1166685699,58,1160000000,world,base_link,-3.907985046680551e-14,-4.218847493575595e-14,2.919886554764162e-14
1216672102,59,1180000000,world,base_link,-1.5987211554602254e-13,2.686739719592879e-13,-1.514600944663158e-12
1216709744,60,1200000000,world,base_link,-1.6342482922482304e-13,2.6689761511988763e-13,-1.5088000293594916e-12
1216746532,61,1220000000,world,base_link,-1.5987211554602254e-13,2.660094367001875e-13,-1.5058995717076584e-12
1277044105,62,1240000000,world,base_link,2.842170943040401e-14,-7.949196856316121e-14,4.729897029598362e-14
1277080695,63,1260000000,world,base_link,2.6645352591003757e-14,-8.215650382226158e-14,5.710015793525258e-14
1298932606,64,1280000000,world,base_link,2.842170943040401e-14,-8.393286066166183e-14,5.100087019371813e-14
1314257321,65,1300000000,world,base_link,-5.3290705182007514e-14,-4.1300296516055823e-14,1.0401401961956935e-14
1356644823,66,1320000000,world,base_link,-5.1514348342607263e-14,-4.1300296516055823e-14,-7.89993070959838e-15
1356681603,67,1340000000,world,base_link,-5.3290705182007514e-14,-4.1300296516055823e-14,-3.039929419301757e-14
1356724343,68,1360000000,world,base_link,-5.1514348342607263e-14,-4.04121180963557e-14,-5.3599485960731386e-14
1406741544,69,1380000000,world,base_link,2.042810365310288e-13,3.6060043839825084e-13,-3.71510114338669e-12
1406802080,70,1400000000,world,base_link,2.042810365310288e-13,3.597122599785507e-13,-3.715000529425083e-12
1428486980,71,1420000000,world,base_link,2.0961010704922955e-13,3.597122599785507e-13,-3.715000529425083e-12
1428514706,72,1440000000,world,base_link,-3.907985046680551e-14,-8.926193117986259e-14,3.688993555073239e-13
1487033675,73,1460000000,world,base_link,-4.085620730620576e-14,-9.192646643896296e-14,3.885017307858618e-13
1487291739,74,1480000000,world,base_link,-4.085620730620576e-14,-9.325873406851315e-14,3.9309874799720035e-13
1546760401,75,1500000000,world,base_link,-5.861977570020827e-14,-5.773159728050814e-14,1.4640025303158666e-13
1546806670,76,1520000000,world,base_link,-5.861977570020827e-14,-5.81756864903582e-14,1.3669967935392435e-13
1546822512,77,1540000000,world,base_link,-6.394884621840902e-14,-5.906386491005833e-14,1.3099937801186456e-13
1606736730,78,1560000000,world,base_link,-6.394884621840902e-14,-5.861977570020827e-14,1.19598775327745e-13
1606776265,79,1580000000,world,base_link,-5.684341886080802e-14,-5.728750807065808e-14,4.700059785811561e-14
1606883875,80,1600000000,world,base_link,-1.7763568394002505e-13,2.5490720645393594e-13,-1.5164987321458767e-12
1666581033,81,1620000000,world,base_link,0.0016033219429694157,0.003257044806789011,-3.9742400342879236e-11
1666615307,82,1640000000,world,base_link,0.007920025348761683,0.016805116800703068,-5.0991200845063034e-11
1666650391,83,1660000000,world,base_link,0.014362583371672955,0.03046905840513947,-4.23040005803621e-11
1716653172,84,1680000000,world,base_link,0.02099024785665904,0.04403700255456178,-4.219129906557484e-11
1716701244,85,1700000000,world,base_link,0.027814444860437604,0.057502443182789076,-5.2981698889231765e-11
1745852243,86,1720000000,world,base_link,0.034835522018916265,0.0708617458965759,-4.3966798951577957e-11
1745894494,87,1740000000,world,base_link,0.04205210669535653,0.08411209630885574,-5.423799950832198e-11
1796565740,88,1760000000,world,base_link,0.04946266731403348,0.09725076277560296,-4.508129980429487e-11
1796602912,89,1780000000,world,base_link,0.05706562578120966,0.11027503988446208,-5.540840009032877e-11
1796628547,90,1800000000,world,base_link,0.06485936570255646,0.12318224477163531,-4.590250055058753e-11
1846867561,91,1820000000,world,base_link,0.07284223320517569,0.13596971741684305,-4.6354899085887524e-11
1851816608,92,1840000000,world,base_link,0.08101253732597868,0.14863482109283987,-4.6787299728956455e-11
1896585124,93,1860000000,world,base_link,0.08936855032677116,0.16117494290401924,-4.720850099726448e-11
1896610783,94,1880000000,world,base_link,0.09790850803150519,0.17358749429568254,-4.764420108438472e-11
1896629545,95,1900000000,world,base_link,0.10663061016945363,0.18586991156173172,-4.807760092817581e-11
1956710997,96,1920000000,world,base_link,0.11553302072152327,0.19801965634913943,-4.854610116677982e-11
1956732984,97,1940000000,world,base_link,0.12461386827793319,0.21003421615664353,-4.9020898451601624e-11
1957077551,98,1960000000,world,base_link,0.13387124639975667,0.22191110482865595,-4.9497999449199526e-11
1991366272,99,1980000000,world,base_link,0.14330321398858814,0.2336478630442822,-4.997659924788067e-11
2046593714,100,2000000000,world,base_link,0.1529077956629017,0.24524205880112193,-5.045890094645955e-11
2046624674,101,2020000000,world,base_link,0.16268298214117038,0.2566912878938008,-5.0952200791876123e-11
2096896958,102,2040000000,world,base_link,0.17262673063163625,0.2679931743871262,-5.1492400621189205e-11
2096933919,103,2060000000,world,base_link,0.1827369652330617,0.2791453710823073,-5.69202011913017e-11
2096944258,104,2080000000,world,base_link,0.19301157732264684,0.2901455599857825,-5.726830121233206e-11
2156701283,105,2100000000,world,base_link,0.20344842598665913,0.3009914527574229,-5.7577900780536595e-11
2156755422,106,2120000000,world,base_link,0.214045338421883,0.3116807911639863,-5.7898699723502034e-11
2156775074,107,2140000000,world,base_link,0.2248001103630628,0.32221134753113523,-6.418770029381626e-11
2156787253,108,2160000000,world,base_link,0.23571050650632408,0.3325809251647889,-5.433169886215339e-11
2206681984,109,2180000000,world,base_link,0.22686417825211613,0.3250529485246294,2.000140121201366e-06
2206706174,110,2200000000,world,base_link,0.21592637101661616,0.3147172903051323,-4.2401135200154094e-08
2225949620,111,2220000000,world,base_link,0.20516747192678153,0.304178104120322,2.740282907701813e-06
2248090695,112,2240000000,world,base_link,0.1945777850645154,0.2934834917792011,6.006435585001468e-06
2306693213,113,2260000000,world,base_link,0.18414703100279617,0.2826316177632333,-9.463245013996424e-10
2306759941,114,2280000000,world,base_link,0.17388461344721762,0.2716319779436467,1.0062269701488491e-08
2306810275,115,2300000000,world,base_link,0.16378446178216421,0.260478782158883,1.0461535167798769e-05
2366645812,116,2320000000,world,base_link,0.15383124398704062,0.24915475268217824,-1.1153721954801354e-05
2366676942,117,2340000000,world,base_link,0.14407608014358964,0.23771314079168837,3.815779983651346e-11
2366699627,118,2360000000,world,base_link,0.1344731760117508,0.22610830526617542,3.9759799619343283e-11
2416590459,119,2380000000,world,base_link,0.1250429696266977,0.2143607702637813,4.131300163079388e-11
2416615778,120,2400000000,world,base_link,0.11578752516238033,0.2024731133246953,4.390819999255946e-11
2442312398,121,2420000000,world,base_link,0.10670878134770412,0.1904477986315265,4.541809983660272e-11
2442355150,122,2440000000,world,base_link,0.09780864442333659,0.17828731514241758,4.687550000936902e-11
2496615665,123,2460000000,world,base_link,0.08908898572633639,0.16599417802729866,4.829220009994195e-11
2496655130,124,2480000000,world,base_link,0.0805516411726046,0.15357092829986696,4.966859909472099e-11
2496664382,125,2500000000,world,base_link,0.0721984108897793,0.14102013231822186,4.5517398877814585e-11
2546557414,126,2520000000,world,base_link,0.06403105887668481,0.1283443813302445,5.0927800171463034e-11
2546582079,127,2540000000,world,base_link,0.05605131263785523,0.11554629086555179,5.21215987037138e-11
2568708897,128,2560000000,world,base_link,0.04826086286779052,0.10262850030823101,5.3269201549799305e-11
2568739337,129,2580000000,world,base_link,0.04066136312392565,0.08959367234745308,5.437050115686404e-11
2616781409,130,2600000000,world,base_link,0.0332544295032946,0.07644449245748408,5.5425299766431735e-11
2616816310,131,2620000000,world,base_link,0.026041640330296545,0.06318366837025158,5.6433399620026137e-11
2666680443,132,2640000000,world,base_link,0.01902453585176822,0.049813929543894186,5.739449887576242e-11
2666832753,133,2660000000,world,base_link,0.012204617939453044,0.0363380266271891,5.830850038912594e-11
2716824285,134,2680000000,world,base_link,0.005582948660556752,0.022758586977688733,5.6152998917369246e-11
2716861794,135,2700000000,world,base_link,-0.0008622232887454118,0.009076308937581157,4.917299900597527e-11
2716898096,136,2720000000,world,base_link,-0.0071460767159443606,-0.004701218459344236,5.495420899587211e-09
2766495887,137,2740000000,world,base_link,-0.013268264381135708,-0.018572811505194853,6.082559063098902e-06
2766516581,138,2760000000,world,base_link,-0.01923338888033932,-0.032536081078093027,-3.5518612001989025e-06
2793352898,139,2780000000,world,base_link,-0.025059957148393153,-0.04657238336485525,-4.168061877599105e-06
2806623991,140,2800000000,world,base_link,-0.030658474983415118,-0.060678134739151623,-4.4295952100759095e-08
2846899747,141,2820000000,world,base_link,-0.03614275469171169,-0.0748773041885955,-3.3704561267014488e-06
2846948294,142,2840000000,world,base_link,-0.04146270858223744,-0.08913711196375829,-4.9410513328004835e-06
2896719633,143,2860000000,world,base_link,-0.04662903788117312,-0.10346381180255815,9.902301259002988e-07
2896746234,144,2880000000,world,base_link,-0.05163909028194347,-0.11785780546969882,-3.9147597349908914e-07
2896758095,145,2900000000,world,base_link,-0.05652330541941453,-0.13232292682271574,-6.667687821201168e-06
2946694932,146,2920000000,world,base_link,-0.06123470894531202,-0.14683127351983227,5.384767800056811e-08
2946716794,147,2940000000,world,base_link,-0.06579719790910765,-0.16140404393567076,-1.2979118699935066e-08
2996732304,148,2960000000,world,base_link,-0.0702385637330103,-0.17603016108649294,-1.533385550131494e-08
2996767185,149,2980000000,world,base_link,-0.07453904123269872,-0.19070011899893213,6.125066648699634e-06
3056619089,150,3000000000,world,base_link,-0.07869519006654002,-0.20542316520764103,-2.2672230065579058e-10
3056646332,151,3020000000,world,base_link,-0.08263336591763526,-0.22019593996779552,5.107912099885925e-08
3056654006,152,3040000000,world,base_link,-0.08651215435185833,-0.23500838352588493,-1.6759099310051373e-07
3056657513,153,3060000000,world,base_link,-0.0902105886010407,-0.24985897937455626,2.4540307501375036e-08
3116622998,154,3080000000,world,base_link,-0.0937730782987316,-0.2647646849740002,-8.236958646299503e-06
3116668373,155,3100000000,world,base_link,-0.0972032790629811,-0.2796934202001804,6.500609599224827e-09
3133433075,156,3120000000,world,base_link,-0.10055147232871953,-0.29466343299478925,4.354586890034651e-08
3133472040,157,3140000000,world,base_link,-0.10383349631752381,-0.3096637362480785,7.384319891667879e-11
3186687218,158,3160000000,world,base_link,-0.10696584641041085,-0.32469835621197607,-1.0172282200598959e-08
3186744301,159,3180000000,world,base_link,-0.11004291707484448,-0.339766893066745,-8.219605029901461e-06
3236547926,160,3200000000,world,base_link,-0.11303605226329339,-0.3548477231287941,-3.785269906301375e-06
3236579067,161,3220000000,world,base_link,-0.11594195744051561,-0.36995454838196107,-1.121783790997144e-07
3296605640,162,3240000000,world,base_link,-0.11874531385542575,-0.3850882877475481,7.166793901391966e-09
3296634994,163,3260000000,world,base_link,-0.12143612725826003,-0.40024225285242787,3.115308319992516e-07
3296690878,164,3280000000,world,base_link,-0.12399653217337914,-0.41541850750046727,2.8304680880011923e-07
3296697794,165,3300000000,world,base_link,-0.12642069853954752,-0.4306141677125841,-1.1113608519922047e-07
3346635704,166,3320000000,world,base_link,-0.12871498664351577,-0.4458258495559435,1.0376866900474457e-08
3346665509,167,3340000000,world,base_link,-0.1308673178970956,-0.46106373236215026,-9.807054960498524e-06
3367656526,168,3360000000,world,base_link,-0.13288143533821462,-0.47629605019050647,4.9053690599071276e-08
3367686144,169,3380000000,world,base_link,-0.1347590783959145,-0.4915580723645441,-5.189509079499971e-06
3426559658,170,3400000000,world,base_link,-0.1358141007798519,-0.5008106327055009,-4.73859293900758e-07
3426618643,171,3420000000,world,base_link,-0.13462801918308287,-0.48599459349278007,-6.639252877499446e-06
3476574645,172,3440000000,world,base_link,-0.13342571650947832,-0.4707457383253133,-6.631401590698194e-06
3476621312,173,3460000000,world,base_link,-0.13209769043567832,-0.45550928467850094,-6.623689458300219e-06
3536658882,174,3480000000,world,base_link,-0.13063342013085588,-0.44028775545508303,-6.615903587598587e-06
3536742888,175,3500000000,world,base_link,-0.12903230451439995,-0.4250824186414137,-6.608021531000902e-06
3536755817,176,3520000000,world,base_link,-0.1272944508797611,-0.40989447367160503,-6.600040279098468e-06
3586739010,177,3540000000,world,base_link,-0.12542002204551572,-0.39472511292799695,-6.591958193299247e-06
3586785164,178,3560000000,world,base_link,-0.12340919089164792,-0.37957552676668316,-6.5837737564002075e-06
3598928111,179,3580000000,world,base_link,-0.12126213720690693,-0.36444690388805956,-6.575485422398442e-06
3612994894,180,3600000000,world,base_link,-0.1189790475501944,-0.3493404313694608,-6.56709163129876e-06
3656701174,181,3620000000,world,base_link,-0.11656011534743449,-0.33425729467156673,-6.558590806098746e-06
3656740696,182,3640000000,world,base_link,-0.11400554099425975,-0.3191986776348412,-6.549981352899775e-06
3656895693,183,3660000000,world,base_link,-0.11131553193640542,-0.30416576242300675,-6.541261659800263e-06
3716598797,184,3680000000,world,base_link,-0.10849042646348472,-0.28915975517703396,-6.5324141700004446e-06
3716656756,185,3700000000,world,base_link,-0.10553905062560354,-0.2741834274647741,-6.979481118298686e-06
3716676754,186,3720000000,world,base_link,-0.10246435444935997,-0.25923833194476753,-6.970545566198361e-06
3776596038,187,3740000000,world,base_link,-0.09925250769780902,-0.2443243942670943,-6.9615383915984375e-06
3776624452,188,3760000000,world,base_link,-0.0959020317010264,-0.22944321130342127,-6.952425301898907e-06
3790951828,189,3780000000,world,base_link,-0.09241309677827836,-0.21459605909474844,-6.943202577800595e-06
3795664839,190,3800000000,world,base_link,-0.08878599934518405,-0.19978418304602918,-6.933869346300442e-06
3839611558,191,3820000000,world,base_link,-0.08502426109856565,-0.18500918040735126,-6.924422450298867e-06
3896755726,192,3840000000,world,base_link,-0.08113565709207471,-0.17027197801509697,-6.91460674969932e-06
3896787967,193,3860000000,world,base_link,-0.07711835520876242,-0.15557432071163335,-6.904449955599107e-06
3896828706,194,3880000000,world,base_link,-0.07296973246358363,-0.14091840643141174,-6.893938728200211e-06
3896836910,195,3900000000,world,base_link,-0.06868718711839605,-0.1263067340383892,-6.883051247800337e-06
3946637369,196,3920000000,world,base_link,-0.06426805215623155,-0.11174244631562713,-6.871755082699799e-06
3946674951,197,3940000000,world,base_link,-0.059709334346575105,-0.09722829439905212,-6.860030132799927e-06
3962649622,198,3960000000,world,base_link,-0.055008001723049205,-0.0827671173383484,-6.847859552499419e-06
3993171392,199,3980000000,world,base_link,-0.05016100451600458,-0.06836189211660981,-6.8352242179013645e-06
4046605857,200,4000000000,world,base_link,-0.04518763342003318,-0.05403244968792098,-1.4976291657989305e-06
4046650178,201,4020000000,world,base_link,-0.040134869041258625,-0.039768567855364534,1.9106254860179472e-07
4096578791,202,4040000000,world,base_link,-0.03488706002753972,-0.02557415593047807,-1.1031525300013445e-06
4096605812,203,4060000000,world,base_link,-0.029433327205069304,-0.011456168494224261,-1.3825982238986623e-06
4096619641,204,4080000000,world,base_link,-0.02377979938001573,0.0025627216006016695,3.3583669909950653e-07
4156606886,205,4100000000,world,base_link,-0.017914358800039665,0.01649650034372785,-1.4058785434006849e-06
4156634479,206,4120000000,world,base_link,-0.011846292193853358,0.03034483624882034,-1.2771744462986012e-06
4156644067,207,4140000000,world,base_link,-0.0055821240346318746,0.044085292689691524,4.7559990780030037e-07
4206729339,208,4160000000,world,base_link,0.00040789314144795696,0.05797838336965189,6.560903120095274e-08
4206764424,209,4180000000,world,base_link,0.006677711567986577,0.07172993999247979,-6.949664766997543e-07
4206813838,210,4200000000,world,base_link,0.012823755398793324,0.08553870992403789,-5.0092499592757633e-11
4256656430,211,4220000000,world,base_link,0.018775770068518938,0.09943467620997692,-4.012840060241274e-11
4256690815,212,4240000000,world,base_link,0.024526443605241255,0.1134209761468985,-4.003729986434834e-11
4256719591,213,4260000000,world,base_link,0.030072410156657625,0.1274950938466426,-4.1537100148314465e-11
4316794013,214,4280000000,world,base_link,0.0354121898977553,0.141654250481269,-7.155009917880761e-11
4316879599,215,4300000000,world,base_link,0.040544377966412526,0.15589556414461603,-6.460310064682062e-11
4332204484,216,4320000000,world,base_link,0.045507053810233344,0.1702060477299292,-5.7398982997169945e-09
4332352242,217,4340000000,world,base_link,0.05028857163895317,0.1845919653823267,-2.4384035836010065e-06
4376865186,218,4360000000,world,base_link,0.05486512255829368,0.19906189118900786,7.439469873471438e-11
4377053357,219,4380000000,world,base_link,0.05930035873380568,0.2135862726476554,7.926063350094381e-08
4426593263,220,4400000000,world,base_link,0.06346237716000047,0.2281922692690599,-3.682845140500629e-06
4426614879,221,4420000000,world,base_link,0.0674758686188568,0.24283642095320923,-2.745246055500805e-06
4486560331,222,4440000000,world,base_link,0.07126835120808828,0.25754699736012787,-2.8624961246996594e-06
4486581981,223,4460000000,world,base_link,0.07485563558661212,0.2723142922782462,-2.985026371297994e-06
4486594507,224,4480000000,world,base_link,0.07823277539090867,0.28713550020306444,-3.089921521298028e-06
4536730633,225,4500000000,world,base_link,0.08140079743591677,0.3020081009403728,-3.2127882084002912e-06
4536791230,226,4520000000,world,base_link,0.08435679034684895,0.3169297962715727,-3.3369957955012297e-06
4542512293,227,4540000000,world,base_link,0.0870988348457864,0.3318980484131484,-3.432243296099674e-06
4556274514,228,4560000000,world,base_link,0.08962506936536663,0.3469102585065227,-3.4522411552981302e-06
4596690038,229,4580000000,world,base_link,0.09195757831377094,0.3619589099934202,-8.486184257007479e-07
4646715587,230,4600000000,world,base_link,0.09412785630354037,0.37704347124707693,-1.686651734198602e-06
4646757556,231,4620000000,world,base_link,0.0962302490769833,0.3921641244432368,2.3147315132004964e-06
4696671503,232,4640000000,world,base_link,0.098115382447995,0.40732512062543913,-3.0230053600990847e-06
4696706917,233,4660000000,world,base_link,0.09985494195522548,0.4225015649517112,5.055929469879872e-08
4696733588,234,4680000000,world,base_link,0.10156699134905445,0.4377103533283768,-5.490969439300025e-06
4696749900,235,4700000000,world,base_link,0.10309292144189719,0.4529264286292505,-1.8775103689805395e-07
4746809610,236,4720000000,world,base_link,0.10432882995588422,0.46817515949451005,-1.72631005400381e-07
4747960332,237,4740000000,world,base_link,0.10551849426371618,0.48343766029654,-1.724825543988895e-07
4806667284,238,4760000000,world,base_link,0.10552748265634904,0.4777918202387421,-1.2271135982344639e-09
4806694015,239,4780000000,world,base_link,0.10456317278003269,0.4625298014886563,3.67410286299108e-07
4806699746,240,4800000000,world,base_link,0.10343615544827323,0.44726955578896144,-3.8994785400703336e-08
4866576239,241,4820000000,world,base_link,0.10216071293397277,0.4320324595884082,2.4185303820062343e-07
4866630693,242,4840000000,world,base_link,0.1007658853941713,0.41679977777487354,-3.873198742801454e-06
4869529824,243,4860000000,world,base_link,0.0992735567210481,0.40158953870841296,-4.034315255301013e-06
4869554121,244,4880000000,world,base_link,0.09761792873668895,0.3864091703946815,-5.6324962499632036e-08
4916552129,245,4900000000,world,base_link,0.09581747922674033,0.3712488699610863,-2.145955726000348e-07
4916587798,246,4920000000,world,base_link,0.09386740196246812,0.3561191544320823,5.1714543438004246e-06
4976603209,247,4940000000,world,base_link,0.09171605988706233,0.3410137995252822,-3.08736710579946e-06
4976658106,248,4960000000,world,base_link,0.0893967878302,0.325965573954869,1.0978244199127962e-08
5026621510,249,4980000000,world,base_link,0.08689044548804326,0.31094345010906155,7.349249280010073e-07
5026639268,250,5000000000,world,base_link,0.08416820660269764,0.2959704420328353,-2.1461415000006978e-07
5026687591,251,5020000000,world,base_link,0.0812515385793855,0.2810421767231248,1.1893284303995943e-06
5086606122,252,5040000000,world,base_link,0.07811689462085347,0.266166202417907,1.565481601989438e-09
5086637853,253,5060000000,world,base_link,0.07475893984142701,0.2513440413523269,6.247611020193666e-08
5088692923,254,5080000000,world,base_link,0.07116077014619115,0.2365820400444778,-1.6701039709868248e-07
5112769800,255,5100000000,world,base_link,0.06739282892333875,0.22187091819257843,3.244298709889626e-08
5166674084,256,5120000000,world,base_link,0.06340698244662946,0.20722718930279393,3.113761570899126e-06
5166709392,257,5140000000,world,base_link,0.059221564520592906,0.19265140817693593,7.586541872498659e-06
5166717557,258,5160000000,world,base_link,0.0548188913904788,0.1781464955158154,4.925134538015519e-07
5226795590,259,5180000000,world,base_link,0.05020418305863039,0.16370511405615273,8.676764021001843e-06
5226832589,260,5200000000,world,base_link,0.04538272805272925,0.14935691900848047,5.585476812900586e-06
5226858478,261,5220000000,world,base_link,0.0403524695112214,0.13506529667468437,1.1281107420088587e-07
5276664253,262,5240000000,world,base_link,0.03511345820202827,0.12086098410103974,2.760826042599862e-06
5276678551,263,5260000000,world,base_link,0.029667793461529257,0.10673855078571615,2.2482038900019374e-06
5297077019,264,5280000000,world,base_link,0.02402776679604912,0.09271139277357276,9.391999091400843e-06
5305614400,265,5300000000,world,base_link,0.018172883218637637,0.07876471651660566,4.8637731541005536e-06
5346746343,266,5320000000,world,base_link,0.012113080154385614,0.06490787564102041,-7.675332534991253e-07
5346784179,267,5340000000,world,base_link,0.005860961455558922,0.051154943052197144,3.0796471374994194e-06
5396606341,268,5360000000,world,base_link,-0.0006062768981109912,0.03749183815254309,-5.578739058001436e-07
5396635938,269,5380000000,world,base_link,-0.007244847176645308,0.023954424328470836,1.6123987267101236e-05
5396708167,270,5400000000,world,base_link,-0.014114816000031283,0.010490209920936522,5.648163882016055e-07
5446714114,271,5420000000,world,base_link,-0.021179014909003868,-0.0028645192378249362,-1.0394219383098868e-05
5446752742,272,5440000000,world,base_link,-0.02841705947753148,-0.016082224116367172,-4.989640583999422e-06
5460987911,273,5460000000,world,base_link,-0.03585423892121575,-0.029200249461231564,-6.810249509811572e-08
5496625694,274,5480000000,world,base_link,-0.04348815428337893,-0.042206224335928244,1.292169951350175e-05
5536697429,275,5500000000,world,base_link,-0.051307723094774715,-0.05509130352440428,8.883916764498845e-06
5536748324,276,5520000000,world,base_link,-0.05931874665907522,-0.06785680385495718,2.117197510299179e-06
5536766221,277,5540000000,world,base_link,-0.06751480799952958,-0.08049375792029378,5.821012096299261e-06
5587244401,278,5560000000,world,base_link,-0.07588992456467203,-0.09299929573690902,7.8735302833019e-06
5596207390,279,5580000000,world,base_link,-0.08447161102094292,-0.10539728858640718,-3.5951274179983617e-06
5636532258,280,5600000000,world,base_link,-0.09320275638015474,-0.1176340754310563,1.1724000346900743e-05
5636561560,281,5620000000,world,base_link,-0.1021481824630115,-0.12976990578657377,2.767028098003832e-07
5636589257,282,5640000000,world,base_link,-0.10777547100419049,-0.13689729768969316,-1.2001000887496005e-11
5696631520,283,5660000000,world,base_link,-0.09915113447338264,-0.12506559969980602,-5.938400118865594e-11
5696682144,284,5680000000,world,base_link,-0.09017076164783511,-0.11297449200349918,-4.816680040931054e-11
5703795782,285,5700000000,world,base_link,-0.08134745172818292,-0.10076603711362653,-4.776249881710548e-11
5737715398,286,5720000000,world,base_link,-0.07270374229508292,-0.08842714089346604,-4.732119904260479e-11
5786601967,287,5740000000,world,base_link,-0.0642429206424513,-0.07595924279366129,-4.687120136459555e-11
5786707698,288,5760000000,world,base_link,-0.055966883141415735,-0.06336483852863317,-4.648099960480323e-11
5786904244,289,5780000000,world,base_link,-0.04787739340375552,-0.05064652016719995,-4.554880084217672e-11
5836604392,290,5800000000,world,base_link,-0.03997617167594392,-0.03780690915390572,-4.5489199212989107e-11
5836678259,291,5820000000,world,base_link,-0.032264900888529624,-0.024848651179818937,-4.503280040535351e-11
5848129267,292,5840000000,world,base_link,-0.024744183550950538,-0.011774690281896927,-5.6766098766036777e-11
5867943643,293,5860000000,world,base_link,-0.01740985528697081,0.0014115874046138899,-4.788990037862817e-11
5916591012,294,5880000000,world,base_link,-0.01027210612348739,0.014708876783251501,-5.323889940012094e-11
5916648064,295,5900000000,world,base_link,-0.003329186135861306,0.0281131148392757,-4.395269911916522e-11
5916716745,296,5920000000,world,base_link,0.0034175539716923,0.041621722033292397,-4.3356398332639046e-11
5976650884,297,5940000000,world,base_link,0.009966293544515281,0.055232044511761114,-4.2729000893082514e-11
5976693120,298,5960000000,world,base_link,0.016315632756928267,0.0689413335963156,-4.198559902524046e-11
5999831796,299,5980000000,world,base_link,0.022464509315101466,0.0827467332049987,-5.005990066919708e-11
6021764279,300,6000000000,world,base_link,0.028411296450805423,0.09664551219229844,-4.3110199438034513e-11
6066581220,301,6020000000,world,base_link,0.03415460658521852,0.11063488457083048,-3.993389993683927e-11
6066602330,302,6040000000,world,base_link,0.039693788447412004,0.1247118851633684,-3.962710021232496e-11
6066614326,303,6060000000,world,base_link,0.04502666007626921,0.13887384283567394,-6.67923980013363e-11
6126705186,304,6080000000,world,base_link,0.05015202486849368,0.15311786033705976,-4.6663801295254714e-11
6126782540,305,6100000000,world,base_link,0.052015523549583165,0.15808838527051128,-4.8239653451000175e-06
6126867547,306,6120000000,world,base_link,0.05201691008073439,0.15808921120747454,-2.4079945382012025e-06
6186739624,307,6140000000,world,base_link,0.05201672575161709,0.1580893773912595,-9.271464200544255e-09
6186780402,308,6160000000,world,base_link,0.05201836245898406,0.1580911336277686,-4.34745212989085e-08
6195610768,309,6180000000,world,base_link,0.05201909941424532,0.15809158968867942,1.2757485300801674e-08
6221676246,310,6200000000,world,base_link,0.05201912344659476,0.15809167714676198,-9.364731376991509e-07
6276681246,311,6220000000,world,base_link,0.05202058025376033,0.15809355913403378,-3.128116465900971e-06
6276766808,312,6240000000,world,base_link,0.052021915179564004,0.15809372448688963,-2.4303488159009567e-06
6276775856,313,6260000000,world,base_link,0.05202169136484436,0.15809390454129923,1.6166978800830067e-08
6326866881,314,6280000000,world,base_link,0.05202337349375519,0.15809565236428602,-4.356715040121362e-08
6326908102,315,6300000000,world,base_link,0.053662873296309144,0.1628923619052718,5.486940068966106e-11
6326942397,316,6320000000,world,base_link,0.05852826159226687,0.17713486192803307,-1.0485439617798076e-05
6376623528,317,6340000000,world,base_link,0.06342463891261296,0.1914105127794934,-4.708616436800012e-06
6376657065,318,6360000000,world,base_link,0.06830438194926636,0.20569160565740985,4.947505960126164e-08
6387654632,319,6380000000,world,base_link,0.07319647374377602,0.21999235370403492,-1.0484896586501063e-05
6410627329,320,6400000000,world,base_link,0.07809627506102679,0.23426651026499412,-4.708673998998075e-06
6456704217,321,6420000000,world,base_link,0.08297981362921902,0.24854619491447272,4.9474909401964196e-08
6456752930,322,6440000000,world,base_link,0.08787573643218671,0.2628455221245489,-1.048399680779813e-05
6457108551,323,6460000000,world,base_link,0.09277937050544516,0.27711825269838686,-4.708679921399533e-06
6506620774,324,6480000000,world,base_link,0.09766674242278484,0.29139651437366565,4.947479390060572e-08
6512759418,325,6500000000,world,base_link,0.10256649852589206,0.3056944187866999,-1.0483096765299266e-05
6556732050,326,6520000000,world,base_link,0.10747396515886543,0.3199657223366912,-4.708685819199143e-06
6556758480,327,6540000000,world,base_link,0.11236517005536406,0.33424256006538355,4.9474678600475164e-08
6556827591,328,6560000000,world,base_link,0.11726875907646139,0.3485390407127613,-1.0482196437698599e-05
6616673497,329,6580000000,world,base_link,0.12218005788362518,0.36280891627260514,-4.708691692598133e-06
6616719295,330,6600000000,world,base_link,0.12707509537512962,0.3770843290876029,4.947456359871705e-08
6638268497,331,6620000000,world,base_link,0.13198251693024687,0.39137938500139713,-1.0481295824898984e-05
6641301593,332,6640000000,world,base_link,0.13689764752513867,0.40564783160516305,-4.708697541499357e-06
6696712224,333,6660000000,world,base_link,0.14179651722662,0.4199218185397018,4.94744488016563e-08
6696769508,334,6680000000,world,base_link,0.14670777093092546,0.43421544875233176,-1.0480394927198794e-05
6696780816,335,6700000000,world,base_link,0.1516267329262284,0.44848246543443127,-4.708703366201189e-06
6746840415,336,6720000000,world,base_link,0.1565294344517909,0.4627550255220956,4.9474334299498546e-08
6748207672,337,6740000000,world,base_link,0.16144451991956466,0.4770472290663199,-1.0479493744500884e-05
6796675506,338,6760000000,world,base_link,0.1663673129270773,0.4913128148615118,-4.708709166498931e-06
6796705273,339,6780000000,world,base_link,0.17127384588995298,0.5055839471362282,4.9474220099182675e-08
6796786398,340,6800000000,world,base_link,0.17619276273449636,0.5198747230450889,-1.0478592276999543e-05
6856636044,341,6820000000,world,base_link,0.18111938636470448,0.5341388769882198,-4.708714942500136e-06
6856673044,342,6840000000,world,base_link,0.18602975037641478,0.5484085804837764,4.947410610009473e-08
6860210825,343,6860000000,world,base_link,0.19095249820929538,0.5626979277901616,-1.0477690524500483e-05
6892278968,344,6880000000,world,base_link,0.19588295207164563,0.5769606489163457,-4.708720694201335e-06
6946693924,345,6900000000,world,base_link,0.20079714674336557,0.5912289226672196,4.947399229876526e-08
6946737670,346,6920000000,world,base_link,0.20573393843683618,0.6055117209091292,-4.755828595198047e-06
6946845214,347,6940000000,world,base_link,0.21065397505642913,0.6198041254091469,-1.0497707498599573e-05
6996623352,348,6960000000,world,base_link,0.2155816780209534,0.6340696417493956,4.6675718901045826e-08
6996648348,349,6980000000,world,base_link,0.22052155572251309,0.6483547050462799,-4.605729759899618e-06
7002696024,350,7000000000,world,base_link,0.22544497766614846,0.6626451885432147,-1.0378741223799476e-05
7040996192,351,7020000000,world,base_link,0.23037589489454824,0.6769093015085432,5.002359480116292e-08
7096722358,352,7040000000,world,base_link,0.23531894074899995,0.6911929478632719,-4.707983221698131e-06
7096763408,353,7060000000,world,base_link,0.24024548884146668,0.7054821944942247,-1.0474810197100282e-05
7096770691,354,7080000000,world,base_link,0.24517949512699744,0.719744861162996,4.8435481601188934e-08
7096811658,355,7100000000,world,base_link,0.2501256363540296,0.7340272368591338,-4.709580444798439e-06
7146948923,356,7120000000,world,base_link,0.25512971554286956,0.7482814693738855,-1.0179936630699132e-05
7147843740,357,7140000000,world,base_link,0.2603402284527849,0.7624905062942955,-1.0352950618013057e-06
7206629513,358,7160000000,world,base_link,0.2655567860869663,0.7767046871646861,-1.4308190185996494e-06
7206700424,359,7180000000,world,base_link,0.27095331376781395,0.7908316759486822,2.77245175501345e-07
7206730196,360,7200000000,world,base_link,0.27656138360540616,0.8048777658942101,-1.2809725710993813e-06
7266756682,361,7220000000,world,base_link,0.2823739592670247,0.8188419835312479,-1.3211922472999849e-06
7266840833,362,7240000000,world,base_link,0.28838426515506477,0.8327019590304956,4.1736170389855554e-07
7266846143,363,7260000000,world,base_link,0.2946047609570872,0.8464718477844282,-1.576339743899341e-06
7326902623,364,7280000000,world,base_link,0.30102504626955984,0.8601514316640713,-1.2163978302982825e-06
7330034269,365,7300000000,world,base_link,0.30763903654709956,0.8737181324008598,5.557777185000168e-07
7386716534,366,7320000000,world,base_link,0.31445990989655037,0.8871863159429183,-1.8595043722001436e-06
7386748625,367,7340000000,world,base_link,0.32147551724380286,0.900555980781029,-1.1158531993994691e-06
7386757482,368,7360000000,world,base_link,0.3286807967931029,0.9138048708075988,6.81230869700733e-07
7446835462,369,7380000000,world,base_link,0.33609088027766454,0.926948877471665,-2.182106030101244e-06
7446868074,370,7400000000,world,base_link,0.3436914436496874,0.939987800805723,-8.386762847985285e-07
7446891425,371,7420000000,world,base_link,0.35147896944361,0.9529001819478347,7.665182349993194e-07
7446907089,372,7440000000,world,base_link,0.3594666591380804,0.9656986399611625,-2.495066921799627e-06
7506720213,373,7460000000,world,base_link,0.3676385658437784,0.9783834737529742,-6.041123317007679e-07
7506764620,374,7480000000,world,base_link,0.3759932456264945,0.9909341974027508,8.409780801986455e-07
7506771721,375,7500000000,world,base_link,0.3845422855502978,1.0033616000816061,-2.7469047697986637e-06
7512916926,376,7520000000,world,base_link,0.39326831935586704,1.0156666080507937,-4.889342735993341e-07
7548184141,377,7540000000,world,base_link,0.4021705489173204,1.027829101405215,9.23721912200054e-07
7606585969,378,7560000000,world,base_link,0.4112616605789814,1.039859984792273,-2.9620217332007592e-06
7606617265,379,7580000000,world,base_link,0.42052448841816137,1.0517610464480023,-4.0533590850086454e-07
7656659917,380,7600000000,world,base_link,0.42995784102744317,1.0635122630281324,9.92419875701922e-07
7656705754,381,7620000000,world,base_link,0.43957438893565204,1.0751241030395389,-3.1702902539010314e-06
7656782115,382,7640000000,world,base_link,0.4493555052379623,1.0865984560545416,-3.4114451849878713e-07
7656827722,383,7660000000,world,base_link,0.45930743429361165,1.0979241633435728,-9.25774421790121e-06
7706631764,384,7680000000,world,base_link,0.4694124316418087,1.1090771250003928,-6.25755003369477e-11
7706665538,385,7700000000,world,base_link,0.4796809744686694,1.1200832339140043,-6.297869864502204e-11
7725255779,386,7720000000,world,base_link,0.49011172499158384,1.1309350051240137,-5.278820089382741e-11
7749281044,387,7740000000,world,base_link,0.5007026260448324,1.1416303028362065,-5.316960066670262e-11
7796593509,388,7760000000,world,base_link,0.5114514707941442,1.1521669018732648,-5.38817983286588e-11
7796621832,389,7780000000,world,base_link,0.522356024831085,1.1625426046359473,-5.384509851880104e-11
7846769492,390,7800000000,world,base_link,0.5334140233865927,1.1727552446829619,-6.491440024403161e-11
7846810321,391,7820000000,world,base_link,0.5446231715231757,1.1828026873977335,-5.5185498532006605e-11
7846860160,392,7840000000,world,base_link,0.5559811445926659,1.192682830419718,-5.4966899087904864e-11
7896577253,393,7860000000,world,base_link,0.5674855886573962,1.2023936040591772,-6.594350066002619e-11
7897706316,394,7880000000,world,base_link,0.5791341209591696,1.211932971709588,-6.626429960299163e-11
7946654409,395,7900000000,world,base_link,0.5909243303905551,1.2212989302494006,-6.657379855723455e-11
7946692310,396,7920000000,world,base_link,0.60285377795587,1.2304895104364841,-6.687200099220192e-11
7946699804,397,7940000000,world,base_link,0.6149199972487889,1.239502777298497,-6.715879935503821e-11
8006830742,398,7960000000,world,base_link,0.6271204949324538,1.2483368305161924,-5.6781298413133285e-11
8006874736,399,7980000000,world,base_link,0.6394527512297632,1.2569898047949182,-6.769820121155234e-11
8006949155,400,8000000000,world,base_link,0.6519142203993891,1.2654598702432458,-5.797329977186294e-11
8066500027,401,8020000000,world,base_link,0.6645023312610245,1.2737452327282521,-5.770529887261233e-11
8066530585,402,8040000000,world,base_link,0.6772144876634432,1.2818441342205564,-6.84203006751094e-11
8066538921,403,8060000000,world,base_link,0.690048069017573,1.2897548531770524,-5.82984008290488e-11
8116541988,404,8080000000,world,base_link,0.7030004307905404,1.297475704835795,-5.864770127872454e-11
8116582894,405,8100000000,world,base_link,0.7160689050327615,1.305005041588387,-5.889690124494251e-11
8131075953,406,8120000000,world,base_link,0.7292508008932916,1.3123412532875807,-5.914119888261737e-11
8131121186,407,8140000000,world,base_link,0.742543405147229,1.3194827675719094,-5.937830088731388e-11
8186601042,408,8160000000,world,base_link,0.7559426800432849,1.3264292307585648,-7.560345995083484e-10
8186647582,409,8180000000,world,base_link,0.7694475908502678,1.3332382943088006,-5.682088160100657e-06
8236597057,410,8200000000,world,base_link,0.7830512576021409,1.3398043806482192,-1.101212003529195e-10
8236637584,411,8220000000,world,base_link,0.7967515935318286,1.3461786580138706,-5.890909982042558e-11
8296626930,412,8240000000,world,base_link,0.810546404429699,1.352359057763446,-7.00664005981455e-11
8296666476,413,8260000000,world,base_link,0.8244341087523015,1.358339993918261,-5.948979850400882e-11
8296747394,414,8280000000,world,base_link,0.8383937256793477,1.364187062743199,-7.987427425398125e-06
8346568630,415,8300000000,world,base_link,0.8523323187862619,1.3699999413631407,-3.869061009076358e-10
8346596001,416,8320000000,world,base_link,0.8663695445408575,1.3756194019015262,-7.319093400792731e-09
8346601211,417,8340000000,world,base_link,0.8804250452805373,1.3812259874825634,-7.026319803760117e-11
8406607286,418,8360000000,world,base_link,0.8944760504080502,1.3868328198460467,-7.024649958942142e-11
8406639537,419,8380000000,world,base_link,0.9085268484340414,1.392438967234566,-7.024680143130624e-11
8435079720,420,8400000000,world,base_link,0.9225776984496701,1.3980449916394693,-7.024689857582089e-11
8435163560,421,8420000000,world,base_link,0.9366285886256858,1.4036509218251925,-7.024689857582089e-11
8435174672,422,8440000000,world,base_link,0.9506795181017527,1.4092567598090553,-7.024689857582089e-11
8452056744,423,8460000000,world,base_link,0.9647304868171442,1.4148625057319149,-7.024689857582089e-11
8467745494,424,8480000000,world,base_link,0.9787814947676043,1.4204681596021538,-7.02469991897825e-11
8526699778,425,8500000000,world,base_link,0.9928325419528594,1.4260737214188093,-7.02469991897825e-11
8526718560,426,8520000000,world,base_link,1.0068836283729308,1.4316791911802507,-7.02470998037441e-11
8586859207,427,8540000000,world,base_link,1.0209347540278468,1.43728456888481,-7.02470998037441e-11
8586886086,428,8560000000,world,base_link,1.0349859189176431,1.4428898545308084,-7.02470998037441e-11
8626694733,429,8580000000,world,base_link,1.0490371230423552,1.4484950481165693,-7.024720041770571e-11
8626737490,430,8600000000,world,base_link,1.063088366402022,1.4541001496404165,-7.024720041770571e-11
8626751735,431,8620000000,world,base_link,1.0771396489966474,1.4597051591006722,-7.024720041770571e-11
8676636202,432,8640000000,world,base_link,1.091190970826295,1.4653100764956632,-7.024730103166732e-11
8676667490,433,8660000000,world,base_link,1.1052423318910112,1.47091490182371,-7.024730103166732e-11
8695694263,434,8680000000,world,base_link,1.11929373219081,1.4765196350831347,-7.024739817618197e-11
8700514062,435,8700000000,world,base_link,1.1333451717257308,1.482124276272264,-7.024739817618197e-11
8756598632,436,8720000000,world,base_link,1.1473966504958018,1.4877288253894183,-7.024739817618197e-11
8756644951,437,8740000000,world,base_link,1.1614481685010585,1.4933332824329226,-7.024749879014358e-11
8756652916,438,8760000000,world,base_link,1.1754997257415436,1.498937647401101,-7.024749879014358e-11
8816840711,439,8780000000,world,base_link,1.1895513222172855,1.5045419202922727,-7.024749879014358e-11
8816860058,440,8800000000,world,base_link,1.2036029579283092,1.5101461011047683,-7.024749879014358e-11
8829827790,441,8820000000,world,base_link,1.2176546328746607,1.515750189836902,-7.024759940410519e-11
8829886727,442,8840000000,world,base_link,1.2317063470563614,1.5213541864870028,-7.024759940410519e-11
8886845106,443,8860000000,world,base_link,1.2457581004734575,1.5269580910533924,-7.024759940410519e-11
8886907055,444,8880000000,world,base_link,1.2598098931259738,1.5325619035343947,-7.02477000180668e-11
8936682933,445,8900000000,world,base_link,1.2738617250139495,1.538165623928332,-7.02477000180668e-11
8936746357,446,8920000000,world,base_link,1.28791359613742,1.5437692522335271,-7.02478006320284e-11
8986588844,447,8940000000,world,base_link,1.3019655064964208,1.5493727884483017,-7.02478006320284e-11
8996459071,448,8960000000,world,base_link,1.3160174560909805,1.5549762325709806,-7.02478006320284e-11
9036946839,449,8980000000,world,base_link,1.330069444921131,1.560579584599886,-7.024790124599001e-11
9037056116,450,9000000000,world,base_link,1.3441214729869113,1.5661828445333401,-7.024790124599001e-11
9037194447,451,9020000000,world,base_link,1.3581735402883535,1.5717860123696696,-7.024799839050466e-11
9086531250,452,9040000000,world,base_link,1.3722256468254894,1.577389088107195,-7.024799839050466e-11
9086560833,453,9060000000,world,base_link,1.3862777925983512,1.5829920717442376,-7.024799839050466e-11
9093105825,454,9080000000,world,base_link,1.4003299776069777,1.5885949632791205,-7.024809900446627e-11
9095727360,455,9100000000,world,base_link,1.4144820693229168,1.5939633176797465,-5.8013600867656834e-11
9146664253,456,9120000000,world,base_link,1.4286195220721485,1.5993685009623522,-7.042149849367796e-11
9146697208,457,9140000000,world,base_link,1.4428176283339607,1.604616961207126,-7.048079828098075e-11
9196590328,458,9160000000,world,base_link,1.4570941249096894,1.6096635923129807,-7.052729927847778e-11
9196673744,459,9180000000,world,base_link,1.4714479338374193,1.6145030738388466,-7.056190007292962e-11
9246682727,460,9200000000,world,base_link,1.485871086360186,1.619155138025142,4.446606610003512e-08
9246713927,461,9220000000,world,base_link,1.5003714975155606,1.6236641088641313,2.6523224615007668e-06
9306675938,462,9240000000,world,base_link,1.5149375713344053,1.6279198800189785,-7.059839865486417e-11
9306732498,463,9260000000,world,base_link,1.529567154359457,1.631929218063593,-7.058039916407743e-11
9306769298,464,9280000000,world,base_link,1.5442564257851732,1.6357520422895013,-7.056349948797447e-11
9306773116,465,9300000000,world,base_link,1.5590073474551946,1.6393545329058452,-7.052839909316155e-11
9356560421,466,9320000000,world,base_link,1.5738155446230149,1.6427432801738067,-7.048159972322665e-11
9356587473,467,9340000000,world,base_link,1.5886782674778122,1.6459167922007434,-7.042279953628494e-11
9356698645,468,9360000000,world,base_link,1.6035337231820233,1.649161475538691,-1.007673707600909e-06
9397268159,469,9380000000,world,base_link,1.6184486782434977,1.6521241299129668,-7.030749940573067e-11
9409804281,470,9400000000,world,base_link,1.6333699463716105,1.655037612707059,2.9298812501132865e-08
9466563898,471,9420000000,world,base_link,1.648300200678042,1.6579559339915728,1.6060369883996728e-06
9466599095,472,9440000000,world,base_link,1.6632248268755223,1.6608682360729827,7.384125764002547e-07
9466711088,473,9460000000,world,base_link,1.678155353648469,1.6637789570221586,9.563620034791498e-11
9526652145,474,9480000000,world,base_link,1.693078046029223,1.6666910226751654,1.3391016629935026e-07
9526683458,475,9500000000,world,base_link,1.7080032569083077,1.6695989426246878,-3.1374637874011235e-06
9541957641,476,9520000000,world,base_link,1.722934750187198,1.6725181036406558,3.011332860153315e-08
9542003483,477,9540000000,world,base_link,1.7378695279489111,1.6754481801332406,-9.472080730998228e-06
9596716792,478,9560000000,world,base_link,1.7527898834692852,1.6783414200420137,6.106903810074171e-08
9596769813,479,9580000000,world,base_link,1.767716155169671,1.6812504687943712,3.018623000172749e-08
9596783532,480,9600000000,world,base_link,1.7826446606782422,1.6841671001359129,6.249482109935145e-08
9646737661,481,9620000000,world,base_link,1.7975800114922524,1.6870876653958287,-1.0037742301301222e-05
9647467947,482,9640000000,world,base_link,1.8125030662075243,1.6899897630808778,-8.053318983902713e-10
9706703953,483,9660000000,world,base_link,1.82742578908198,1.6928965324097365,3.007458230022686e-08
9706742213,484,9680000000,world,base_link,1.842357241598835,1.695814638067778,2.775536180055216e-08
9706762091,485,9700000000,world,base_link,1.8572828428050077,1.698724814776687,3.04610647990089e-08
9766654667,486,9720000000,world,base_link,1.8722130372229113,1.7016315604429137,-4.662038012581693e-10
9766688433,487,9740000000,world,base_link,1.8871370393987181,1.7045413023159273,6.138595729995866e-08
9766808102,488,9760000000,world,base_link,1.902058741124323,1.707444625642784,1.0624153025998867e-05
9826612199,489,9780000000,world,base_link,1.9169941249227715,1.710363741388361,2.870410980085336e-08
9826627688,490,9800000000,world,base_link,1.9319239122726355,1.7132761473598035,1.0996155118993267e-06
9826637988,491,9820000000,world,base_link,1.9468484909842605,1.716182260097281,1.349334743001862e-07
9886586564,492,9840000000,world,base_link,1.9617780993400817,1.7190913788967683,-1.8837697389820218e-07
9886624596,493,9860000000,world,base_link,1.9767052487111574,1.7220043280931985,1.3604153770163663e-07
9891844868,494,9880000000,world,base_link,1.9916349217694194,1.724916207588596,-9.72177511500416e-07
9898585224,495,9900000000,world,base_link,2.006565587786751,1.7278215184315369,-1.8638069906873334e-10
9956740640,496,9920000000,world,base_link,2.02148939136241,1.7307261353709475,3.014222989955462e-08
9956782508,497,9940000000,world,base_link,2.036420034540326,1.733639850575766,2.882193339895367e-08
9956810572,498,9960000000,world,base_link,2.0513504210061075,1.7365558416694715,-3.0565664780012047e-06
10016749769,499,9980000000,world,base_link,2.066278054607432,1.7394550967466516,-2.51703300563344e-10
10016783245,500,10000000000,world,base_link,2.0812011727659208,1.7423611045715233,1.342957871991457e-07
10031921334,501,10020000000,world,base_link,2.096151890615234,1.7452889930141953,-5.290371690200996e-06
10031961761,502,10040000000,world,base_link,2.1110611827725148,1.7481803713647497,2.879500579991423e-08
10086677513,503,10060000000,world,base_link,2.1259910700377755,1.751086222309612,2.962918239923784e-08
10086715846,504,10080000000,world,base_link,2.1409165213470036,1.7539921338745832,6.153682829967977e-08
10146968902,505,10100000000,world,base_link,2.155844901444963,1.7568979611261386,9.033654094006693e-07
10147010963,506,10120000000,world,base_link,2.170774279120627,1.7598088157045146,2.9959987501299024e-08
10196534479,507,10140000000,world,base_link,2.1856990082502517,1.7627098008549322,6.030284077598869e-06
10196569827,508,10160000000,world,base_link,2.200632384246683,1.7656213352532135,1.3098793070001613e-07
10196575668,509,10180000000,world,base_link,2.2155592852743897,1.7685236429393218,3.0078727401156025e-08
10246674239,510,10200000000,world,base_link,2.2304891834159566,1.7714365771268743,1.3718727020009536e-07
10246777382,511,10220000000,world,base_link,2.245419762995878,1.7743422552920598,3.912025576986722e-07
10246823730,512,10240000000,world,base_link,2.260350150124472,1.7772468806230912,-5.536561001329154e-10
10306627884,513,10260000000,world,base_link,2.2752743971543996,1.7801497523277763,2.9305408200813732e-08
10306637853,514,10280000000,world,base_link,2.2902065365809126,1.7830600404525803,1.5975496704991043e-06
10309630833,515,10300000000,world,base_link,2.3051329578851654,1.785964466175742,7.334161176986154e-07
10309668131,516,10320000000,world,base_link,2.3200652547815235,1.7888673310852936,8.727659914220531e-11
10356570541,517,10340000000,world,base_link,2.334997579165387,1.7917694880849226,2.8813125989984867e-07
10356599497,518,10360000000,world,base_link,2.34992643448407,1.7946713334082642,3.029672690155194e-08
10416471273,519,10380000000,world,base_link,2.3648548884525322,1.7975663895773741,5.967080673501685e-06
10426324431,520,10400000000,world,base_link,2.3797916242052413,1.800475601788507,5.3771944001634875e-08
10476525611,521,10420000000,world,base_link,2.3947245396066084,1.803373192161954,2.9661742201314567e-08
10476554075,522,10440000000,world,base_link,2.409658877130985,1.8062773630421236,-2.383002941201001e-06
10476560708,523,10460000000,world,base_link,2.4245887414937943,1.809173191006717,1.385165011996703e-07
10536505162,524,10480000000,world,base_link,2.4395209896043664,1.812074279839885,-1.0340471378010585e-06
10536551646,525,10500000000,world,base_link,2.4544557428666263,1.8149704933146773,3.5168411312014314e-06
10536861782,526,10520000000,world,base_link,2.4693864323572416,1.8178692398533447,1.051757876999182e-06
10586735730,527,10540000000,world,base_link,2.4843214027466036,1.8207689380635634,-2.47419126219936e-06
10586761359,528,10560000000,world,base_link,2.4992516957247926,1.8236606893686216,-4.68693198835135e-10
10596217804,529,10580000000,world,base_link,2.5141920367864348,1.8265655961319767,-9.936515962198633e-06
10606516188,530,10600000000,world,base_link,2.529115213289005,1.8294518696171909,-3.447840358401094e-06
10666623320,531,10620000000,world,base_link,2.5440565761458824,1.8323662155392069,-9.392315242100213e-06
10666657239,532,10640000000,world,base_link,2.5589878615707757,1.8352527621788375,-8.209738100600078e-06
10666689086,533,10660000000,world,base_link,2.573917531194615,1.8381381109595556,6.677720182368674e-11
10716826161,534,10680000000,world,base_link,2.5888516374395234,1.841032366978983,2.890417079015606e-07
10716863347,535,10700000000,world,base_link,2.6037823033390897,1.8439262414456254,3.029665610054799e-08
10727973298,536,10720000000,world,base_link,2.6187125645226157,1.8468133117193513,5.972600155199764e-06
10750054337,537,10740000000,world,base_link,2.633651120583453,1.8497145595502746,5.3771309699995884e-08
10806669970,538,10760000000,world,base_link,2.648585838502372,1.8526041714565245,2.9658893500872363e-08
10806715612,539,10780000000,world,base_link,2.663521985462653,1.8555003654789135,-2.382097013798462e-06
10856552739,540,10800000000,world,base_link,2.6784536600015105,1.8583882204229831,1.3851797879896321e-07
10856577376,541,10820000000,world,base_link,2.6933877205461645,1.8612813305024214,-1.0335216243002876e-06
10856607684,542,10840000000,world,base_link,2.7083242798024134,1.8641695585869162,3.523687014599791e-06
10856721144,543,10860000000,world,base_link,2.723256783536412,1.8670603467624924,1.0520010546993808e-06
10906517558,544,10880000000,world,base_link,2.738193557313908,1.869952068291044,-2.473941809199437e-06
10915477906,545,10900000000,world,base_link,2.7531256579851213,1.872835848257702,-4.692204992606808e-10
10956671914,546,10920000000,world,base_link,2.768067805146826,1.8757327850682866,-9.937254376798932e-06
10956705879,547,10940000000,world,base_link,2.7829927925689315,1.8786110837227281,-3.4486893536987695e-06
10956721410,548,10960000000,world,base_link,2.797935963090781,1.8815174430130974,-9.383618243600372e-06
11006630952,549,10980000000,world,base_link,2.812869055080993,1.8843960332814267,-8.208367894901175e-06
11020378651,550,11000000000,world,base_link,2.8278005290522703,1.8872734093280132,5.827219956566765e-11
11066618191,551,11020000000,world,base_link,2.8427364440163334,1.8901596923156716,2.899514262993952e-07
11066714577,552,11040000000,world,base_link,2.8576689162844797,1.8930455970857758,3.029658400197088e-08
11066728184,553,11060000000,world,base_link,2.8726009791669593,1.8959246879617564,5.978115705799342e-06
11126679769,554,11080000000,world,base_link,2.887541349908064,1.898817978241515,5.377067810105607e-08
11126714791,555,11100000000,world,base_link,2.902477864758149,1.901699618648872,2.9656021700852353e-08
11126757543,556,11120000000,world,base_link,2.9174158155277343,1.9045878427012117,-2.3811916806011635e-06
11176592620,557,11140000000,world,base_link,2.932349294569404,1.9074677314114754,1.3851945510068298e-07
11176637654,558,11160000000,world,base_link,2.947285161841025,1.9103528694742775,-1.0329963280007737e-06
11198058851,559,11180000000,world,base_link,2.9622235213770924,1.9132331188882836,3.5305221466989944e-06
11201549220,560,11200000000,world,base_link,2.977157833613651,1.9161159553323608,1.0522518377013845e-06
11246623945,561,11220000000,world,base_link,2.9920964050585166,1.9189997068621367,-2.4736922987003696e-06
11246645233,562,11240000000,world,base_link,3.0070303076745457,1.9218755221122668,-4.697503011574788e-10
11296909090,563,11260000000,world,base_link,3.0219742551905657,1.9247644955929348,-9.937992189300998e-06
11296944408,564,11280000000,world,base_link,3.036901047779141,1.9276348260421208,-3.449536638701345e-06
11346635601,565,11300000000,world,base_link,3.051846020214432,1.9305332053414124,-9.37493689239996e-06
11346763846,566,11320000000,world,base_link,3.066780913036146,1.9334038458310006,-8.206969217799953e-06
11396591943,567,11340000000,world,base_link,3.081714185642399,1.9362732558203866,4.978229981023041e-11
11396623615,568,11360000000,world,base_link,3.096651903592134,1.9391515724173511,2.9086047359863643e-07
11396637526,569,11380000000,world,base_link,3.1115861765000954,1.9420295141320234,3.029650940192252e-08
11396668000,570,11400000000,world,base_link,3.126520035354874,1.9449006322618803,5.983625202501952e-06
11446632840,571,11420000000,world,base_link,3.141462215040834,1.9477859716097305,5.377004949971842e-08
