%time,seq,stamp,frame_id,x,y,z
0,0,0,world,0.0,0.0,0.0
55489956,1,67000000,world,0.0007210110197775,-1.2693621101789176e-05,0.0001661662245169
101869130,2,134000000,world,-0.000137119408464,-0.0001267463667318,0.0005492971977218
139183714,3,200000000,world,-0.000665956933517,-0.0005435480270534,0.0003713784972205
192252540,4,234000000,world,-0.0006504597258754,0.000117513583973,0.0006436667172238
237292526,5,267000000,world,0.0004457594768609,0.000358068908099,0.0002138511044904
287009536,6,300000000,world,0.0002097930992022,-0.0004604145360644,0.0005587931955233
341366606,7,367000000,world,-0.000331086339429,0.0003702758694998,3.520007885526866e-05
391238213,8,400000000,world,0.0001403860806021,-0.0005061838310211,0.0001883047370938
441525097,9,467000000,world,0.0001704439346212,-0.0003505393397063,2.333979500690475e-05
482860134,10,500000000,world,0.000349445734173,-3.3254269510507584e-05,1.359914313070476e-05
527982390,11,567000000,world,-0.0004010266857221,3.305432619526982e-05,0.0003452588862273
579163881,12,600000000,world,0.0004175368230789,-0.00020273651171,0.000259621971054
622197095,13,667000000,world,-4.550127778202295e-05,0.0003058924339711,0.0004742082383017
671910296,14,700000000,world,-0.0004325548070482,-0.0005954982480034,0.0007375825662165
716039497,15,767000000,world,0.0003818602126557,-0.0001185685032396,3.418212872929871e-05
767236034,16,800000000,world,0.0004996578209102,0.0003653060994111,0.0002861256361939
821738522,17,867000000,world,-0.0005193736869841,-0.0002125813625752,-7.427600212395191e-05
871543928,18,900000000,world,0.0003804289735853,0.0001358281006105,0.000309422641294
919509634,19,967000000,world,-0.0003791033523157,-9.774038335308433e-05,0.0006751011824235
966758425,20,1000000000,world,0.0002010066527873,0.0002130959037458,0.0004261771391611
1023052827,21,1067000000,world,-0.0004906266112811,0.0001008722465485,0.000645542750135
1072897309,22,1100000000,world,3.4941243939101696e-05,-8.353154407814145e-05,0.0004715240793302
1118959211,23,1167000000,world,-0.0007822555489838,0.0001119270455092,0.0003096959553658
1165169250,24,1200000000,world,-0.0003198186168447,-0.0003356841625645,0.0005291251000016
1214763314,25,1267000000,world,-0.0004914946039207,-5.562917067436501e-05,-0.0001167005393654
1258404149,26,1300000000,world,-0.0003475984558463,0.0004100910155102,0.0001008738618111
1301769194,27,1367000000,world,0.0012553192209452,0.000417940551415,-0.0006186292739585
1357345888,28,1400000000,world,0.000220229208935,-0.0006143418722786,0.000773680396378
1408844213,29,1467000000,world,0.0006504745688289,-4.860687477048487e-05,0.0005733834113925
1455770944,30,1500000000,world,0.0011857459321618,0.0007996764034032,0.0001907179830595
1495207177,31,1567000000,world,0.0004683863953687,-0.0002718944451771,0.0004830763500649
1545641821,32,1600000000,world,0.0004886801471002,-0.0008771260036155,0.0002773176820483
1598072924,33,1634000000,world,0.0003515287535265,0.0003521259641274,0.0010547802085056
1640352735,34,1700000000,world,0.0077074617147445,-0.0007661541458219,-0.000120943877846
1701203823,35,1734000000,world,0.033470332622528,-0.0046308971941471,-0.0007903166115283
1751128723,36,1767000000,world,0.0581727176904678,-0.0067229699343442,-0.0009213164448738
1795163724,37,1800000000,world,0.0821863710880279,-0.0108887962996959,-0.0005110278725624
1835857856,38,1867000000,world,0.132054790854454,-0.0198445096611976,-0.0011361390352249
1881440335,39,1900000000,world,0.1556688845157623,-0.0250726118683815,-0.001147985458374
1924319127,40,1967000000,world,0.2049640715122223,-0.0383696183562278,-0.001785323023796
1963047066,41,2000000000,world,0.2289806008338928,-0.0458183959126472,-0.00180085003376
2009854084,42,2067000000,world,0.2763416171073913,-0.0614104345440864,-0.0022708177566528
2056214945,43,2100000000,world,0.2990953028202057,-0.0704455599188804,-0.0024087131023406
2119884677,44,2167000000,world,0.3447076976299286,-0.0905384719371795,-0.0017691254615783
2170963011,45,2200000000,world,0.3643893301486969,-0.1007919609546661,-0.0017115771770477
2234840599,46,2267000000,world,0.3703731894493103,-0.1029370427131652,-0.0022442936897277
2289812543,47,2300000000,world,0.3472099900245666,-0.0904580652713775,-0.0036576986312866
2347299217,48,2367000000,world,0.3011239767074585,-0.0708317905664444,-0.000837355852127
2405090573,49,2434000000,world,0.255888283252716,-0.0535853505134582,-0.001278668642044
2463496337,50,2467000000,world,0.2329382449388504,-0.0444827675819397,-0.0004891902208328
2517841699,51,2567000000,world,0.1579479128122329,-0.024823360145092,7.88569450378418e-05
2568246506,52,2600000000,world,0.1371577531099319,-0.0176574140787124,-0.0021864920854568
2618292167,53,2667000000,world,0.0880514830350875,-0.0080402977764606,-0.0018556043505668
2665184148,54,2700000000,world,0.0639980733394622,-0.0027955509722232,-0.0010795667767524
2713259444,55,2767000000,world,0.0148262437433004,0.0040981918573379,-0.0017468929290771
2760032053,56,2800000000,world,-0.0117870448157191,0.0043226326815783,-0.0011214837431907
2814408803,57,2834000000,world,-0.0377546660602092,0.0056278938427567,-0.0006166324019432
2865783955,58,2900000000,world,-0.0875886008143425,0.0075101479887962,-0.0010342970490455
2920444902,59,2934000000,world,-0.1128038763999939,0.0073989443480968,-0.0006661415100097
2980503005,60,3000000000,world,-0.1637224107980728,0.0061854869127273,-6.248056888580322e-05
3030951193,61,3067000000,world,-0.2139964401721954,0.0033345967531204,0.0005623251199722
3091499479,62,3100000000,world,-0.2378081083297729,0.0005516186356544,6.526708602905273e-05
3136852733,63,3167000000,world,-0.2898479998111725,-0.0051748007535934,0.001083493232727
3189681331,64,3200000000,world,-0.3145220875740051,-0.0084052085876464,-0.0008671879768371
3237113009,65,3267000000,world,-0.3634138405323028,-0.0146495997905731,-0.0008055865764617
3289997794,66,3300000000,world,-0.3916426301002502,-0.0214345455169677,0.0016361474990844
3340241823,67,3367000000,world,-0.4399431347846985,-0.0312998443841934,0.0009442269802093
3403706774,68,3400000000,world,-0.4649698138236999,-0.0360011607408523,0.0016666650772094
3456524036,69,3500000000,world,-0.4999129772186279,-0.0460873544216156,0.0021277666091918
3509006512,70,3567000000,world,-0.4479613900184631,-0.0292996615171432,0.0015669763088226
3564667296,71,3600000000,world,-0.4255811870098114,-0.024311676621437,0.0024099946022033
3611918644,72,3667000000,world,-0.3737253546714782,-0.0108159929513931,0.0001848936080932
3667548273,73,3700000000,world,-0.3482215106487274,-0.0052838176488876,-0.0017937123775482
3715797608,74,3767000000,world,-0.298563688993454,0.0047172158956527,-0.0017734766006469
3773757116,75,3800000000,world,-0.2739971578121185,0.0087742060422897,-0.0027384459972381
3820409313,76,3867000000,world,-0.2235397100448608,0.0159434974193573,-0.0023478418588638
3874165401,77,3900000000,world,-0.2001684010028839,0.0179788544774055,-0.0002764016389846
3922766284,78,3967000000,world,-0.1503517180681228,0.0228785090148448,-0.0009069293737411
3974928874,79,4000000000,world,-0.1244618892669677,0.0245681852102279,-0.0013978108763694
4029860317,80,4067000000,world,-0.0732100531458854,0.0260438229888677,-0.0020751170814037
4086732561,81,4100000000,world,-0.0478061214089393,0.0274192281067371,-0.0012022852897644
4136094102,82,4167000000,world,0.0021215565502643,0.0244335830211639,-0.0016017807647585
4189627961,83,4200000000,world,0.0269955229014158,0.0228577256202697,-0.0006648190319538
4241247892,84,4267000000,world,0.0773969292640686,0.0245226919651031,-0.0003062337636947
4292912821,85,4300000000,world,0.1036428958177566,0.029103334993124,-0.0005076006054878
4340352932,86,4367000000,world,0.1533073782920837,0.0382389798760414,-0.0015577375888824
4388667672,87,4400000000,world,0.1803571283817291,0.0442250296473503,-0.0016992986202239
4437756268,88,4467000000,world,0.2278486490249633,0.0560893043875694,-0.0025635212659835
4490804675,89,4500000000,world,0.2522684931755066,0.0633712857961654,-0.0028369426727294
4536889441,90,4567000000,world,0.3010953664779663,0.0781853720545768,-0.0048042833805084
4592107387,91,4600000000,world,0.3260538578033447,0.0872752368450164,-0.0036696791648864
4641381754,92,4667000000,world,0.3727926611900329,0.10696841776371,-0.0026653707027435
4700297288,93,4700000000,world,0.3964579403400421,0.1159538179636001,-0.0032435357570648
4753159499,94,4800000000,world,0.4662992358207702,0.1475900262594223,-0.003766655921936
4807266528,95,4867000000,world,0.531527042388916,0.149860069155693,-0.0181308984756469
4880478345,96,4900000000,world,0.4252308309078216,0.1285311728715896,-0.0031441152095794
4947513877,97,4967000000,world,0.3791452646255493,0.1087320744991302,-0.0024070441722869
5002200178,98,5034000000,world,0.3317881226539612,0.0888866335153579,-0.0019288957118988
5051663548,99,5100000000,world,0.2850282788276672,0.0717686936259269,-0.0019191801548004
5106582705,100,5134000000,world,0.2602280676364898,0.0629176795482635,-0.0014687776565551
5161495487,101,5200000000,world,0.2099817395210266,0.0460044369101524,-0.0010949522256851
5216821547,102,5267000000,world,0.1623541116714477,0.0346720293164253,-0.0004501938819885
5255528515,103,5300000000,world,0.1355985701084137,0.0274201706051826,-0.001007929444313
5309331414,104,5367000000,world,0.0859440416097641,0.021304540336132,-0.0008982196450233
5358504061,105,5400000000,world,0.0583360455930233,0.0152983218431472,-5.035847425460816e-05
5414078891,106,5467000000,world,0.0081024318933486,0.0103952605277299,-6.831623613834381e-05
5469068328,107,5500000000,world,-0.0168715566396713,0.0088280737400054,-8.083228021860123e-05
5517838766,108,5567000000,world,-0.0678633898496627,0.0067631285637617,-4.8547983169555664e-05
5567615960,109,5600000000,world,-0.0931307226419448,0.0083822906017303,0.0003599673509597
5610307364,110,5667000000,world,-0.1460424065589904,0.0085490345954895,-0.000220775604248
5665858596,111,5700000000,world,-0.170127660036087,0.0114093869924545,-0.0007221698760986
5732921480,112,5767000000,world,-0.1361607313156128,0.0078837126493453,-0.0003875643014907
5783145116,113,5800000000,world,-0.1099243313074112,0.0063894167542457,-0.0003378540277481
5833143073,114,5867000000,world,-0.0580926537513732,0.0058362614363431,0.0003398321568965
5891587136,115,5900000000,world,-0.0331391617655754,0.0060517899692058,-0.0001252815127372
5945582736,116,5967000000,world,0.0167619138956069,0.009206966497004,4.591792821884155e-05
6003817076,117,6000000000,world,0.0426991656422615,0.0113652227446436,0.0003688335418701
6052238757,118,6100000000,world,0.0981680825352668,0.0702752470970153,-0.0021183043718338
6107865667,119,6134000000,world,0.1438953876495361,0.0265242345631122,-0.000530406832695
6159283471,120,6200000000,world,0.1662396788597107,0.0308610647916793,-0.0014260560274124
6213479112,121,6267000000,world,0.165056824684143,0.0317727252840995,-0.0015674382448196
6268963131,122,6300000000,world,0.1659392118453979,0.0316738858819007,-0.0003516376018524
6333209580,123,6367000000,world,0.1658842265605926,0.0309809446334838,-0.0009315311908721
6397119427,124,6400000000,world,0.1901564598083496,0.0348157286643981,-0.0016333162784576
6452532637,125,6467000000,world,0.2379346340894699,0.0384470969438552,-0.0012338757514953
6503031726,126,6567000000,world,0.3130501508712768,0.0478027909994125,-0.0003304779529571
6554761456,127,6600000000,world,0.336573451757431,0.0489087402820587,-0.0010675489902496
6612253910,128,6634000000,world,0.3633909821510315,0.0518310815095901,-0.0001741051673889
6665888798,129,6700000000,world,0.4128740429878235,0.0577663630247116,-0.0003972947597503
6709902817,130,6767000000,world,0.4638115763664245,0.0621888488531112,-0.0005157589912414
6767636092,131,6800000000,world,0.4881528317928314,0.0655560493469238,-0.0012547373771667
6822283490,132,6867000000,world,0.5389372110366821,0.0710069686174392,-0.0012835264205932
6875830318,133,6900000000,world,0.5642914772033691,0.0746452063322067,-0.0021557807922363
6932345329,134,6967000000,world,0.6121131181716919,0.0780559778213501,-0.0019952654838562
6997399031,135,7000000000,world,0.63746178150177,0.0815446674823761,-0.0011081099510192
7051437298,136,7067000000,world,0.6872681975364685,0.0863313674926757,-0.0011608600616455
7101678216,137,7167000000,world,0.7632692456245422,0.0953384339809417,-0.0010532140731811
7158993628,138,7200000000,world,0.7895885705947876,0.0983153283596038,-0.0007315278053283
7210126863,139,7267000000,world,0.837958812713623,0.0949882864952087,-0.0011546611785888
7258810584,140,7300000000,world,0.861840546131134,0.0934649407863617,-0.0006340146064758
7314560067,141,7367000000,world,0.9086087346076964,0.087591528892517,0.0006849765777587
7368136907,142,7400000000,world,0.9334744215011596,0.0838999152183532,0.0021196007728576
7419783130,143,7467000000,world,0.9856387376785278,0.0749292373657226,0.0014234781265258
7475250640,144,7500000000,world,1.0088951587677002,0.0711958408355712,0.0010826587677001
7526876497,145,7567000000,world,1.0563452243804932,0.0598854720592498,0.0026007890701293
7586638560,146,7600000000,world,1.0780105590820312,0.0523350834846496,0.0029270648956298
7639439993,147,7667000000,world,1.1236460208892822,0.0369222164154052,0.0036660432815551
7694444530,148,7700000000,world,1.146585464477539,0.0289138555526733,0.0046474933624267
7760837533,149,7767000000,world,1.1933777332305908,0.0077416896820068,0.0036630630493164
7809459904,150,7867000000,world,1.2603009939193726,-0.0256450176239013,0.0035481452941894
7848119776,151,7900000000,world,1.2998387813568115,-0.0300638079643249,-0.0034173727035522
7897311870,152,7934000000,world,1.3144047260284424,-0.05543053150177,0.0020824670791625
7962400771,153,7967000000,world,1.331645965576172,-0.0671201944351196,0.0014841556549072
8026201131,154,8067000000,world,1.3888511657714844,-0.1089517474174499,0.0030267238616943
8082446038,155,8100000000,world,1.4405406713485718,0.022884726524353,0.0559934377670288
8125555230,156,8167000000,world,1.4675627946853638,-0.014714777469635,0.0554254055023193
8175594495,157,8200000000,world,1.4849953651428225,-0.034918874502182,0.0547642707824707
8229707185,158,8267000000,world,1.5176024436950684,-0.0743107199668884,0.0564426183700561
8290077457,159,8300000000,world,1.537029504776001,-0.086832582950592,0.0544956922531127
8341880504,160,8367000000,world,1.5662822723388672,-0.1289928555488586,0.0543971061706543
8396159380,161,8400000000,world,1.581859827041626,-0.1465365588665008,0.0552617311477661
8445999461,162,8467000000,world,1.616686224937439,-0.1828702092170715,0.0553383827209472
8501827944,163,8500000000,world,1.635460376739502,-0.2005155980587005,0.0553668737411499
8556053197,164,8567000000,world,1.672346830368042,-0.2367261052131652,0.0544841289520263
8612091954,165,8634000000,world,1.7072330713272097,-0.2732979357242584,0.0539582967758178
8664920079,166,8700000000,world,1.7407630681991575,-0.3082937598228454,0.0555663108825683
8714182230,167,8767000000,world,1.7787446975708008,-0.3436234593391418,0.0541484355926513
8774597803,168,8800000000,world,1.7955293655395508,-0.3600636124610901,0.0535608530044555
8825793884,169,8867000000,world,1.8321212530136108,-0.3944329023361206,0.0531215667724609
8879142295,170,8900000000,world,1.850918531417847,-0.4125694036483764,0.0510885715484619
8931535768,171,8967000000,world,1.8850518465042116,-0.448573887348175,0.0522369146347045
8981844038,172,9000000000,world,1.905787467956543,-0.4657508134841919,0.0516490936279296
9038535318,173,9067000000,world,1.939884185791016,-0.5015003681182861,0.0505361557006835
9085578853,174,9100000000,world,1.955928325653076,-0.5191417336463928,0.0516464710235595
9139994521,175,9167000000,world,1.990409255027771,-0.5532129406929016,0.0499217510223388
9201254975,176,9200000000,world,2.007840156555176,-0.5741419196128845,0.0495331287384033
9253160749,177,9267000000,world,2.0410265922546387,-0.6145553588867188,0.0503542423248291
9313300004,178,9334000000,world,2.0690460205078125,-0.6594985127449036,0.0478901863098144
9366657900,179,9400000000,world,2.0934765338897705,-0.6972873210906982,0.0504109859466552
9418494153,180,9467000000,world,2.120425224304199,-0.7432197332382202,0.0488488674163818
9469655733,181,9500000000,world,2.1364223957061768,-0.7621277570724487,0.0483264923095703
9515989641,182,9567000000,world,2.164316177368164,-0.8061187267303467,0.0490052700042724
9574735718,183,9600000000,world,2.1785435676574707,-0.8268305659294128,0.0476648807525634
9633633436,184,9667000000,world,2.2074685096740723,-0.8689045310020447,0.0465943813323974
9686205677,185,9700000000,world,2.2227885723114014,-0.8869245648384094,0.0463075637817382
9745228990,186,9767000000,world,2.251047134399414,-0.9311227798461914,0.0468521118164062
9797428593,187,9800000000,world,2.2649483680725098,-0.9507013559341432,0.0462772846221923
9852890422,188,9867000000,world,2.29335355758667,-0.9940051436424256,0.0459578037261962
9907637241,189,9900000000,world,2.308294773101806,-1.0145690441131592,0.0463123321533203
9965003682,190,10000000000,world,2.350987672805786,-1.0784872770309448,0.0453383922576904
10012090477,191,10067000000,world,2.3729612827301025,-1.1303013563156128,0.0436077117919921
10063509163,192,10100000000,world,2.386026382446289,-1.1457703113555908,0.0440626144409179
10118855807,193,10167000000,world,2.4173412322998047,-1.1905471086502075,0.0419623851776123
10172427241,194,10200000000,world,2.432036638259888,-1.2084448337554932,0.0435919761657714
10231400185,195,10267000000,world,2.460439443588257,-1.2507236003875732,0.0417883396148681
10289757875,196,10300000000,world,2.475067377090454,-1.2734607458114624,0.0410199165344238
10350575062,197,10367000000,world,2.504044771194458,-1.315902829170227,0.0417783260345459
10411867858,198,10434000000,world,2.5305943489074707,-1.3882075548171997,0.0342977046966552
10467572744,199,10500000000,world,2.5606818199157715,-1.4294942617416382,0.0319817066192626
10518045719,200,10567000000,world,2.590049266815185,-1.472677230834961,0.0327062606811523
10575405647,201,10600000000,world,2.6071856021881104,-1.4940826892852783,0.0330219268798828
10628875165,202,10667000000,world,2.6387906074523926,-1.5370020866394043,0.0310337543487548
10686633276,203,10700000000,world,2.654784202575684,-1.5569586753845217,0.0314559936523437
10741528883,204,10767000000,world,2.6830644607543945,-1.597942590713501,0.0313658714294433
10802305905,205,10800000000,world,2.699208974838257,-1.6199089288711548,0.0303668975830078
10857546711,206,10867000000,world,2.729131937026977,-1.6594163179397583,0.0303473472595214
10911707500,207,10967000000,world,2.7724831104278564,-1.721001148223877,0.0295236110687255
10969808117,208,11000000000,world,2.7871973514556885,-1.7419981956481934,0.0303676128387451
11028945399,209,11067000000,world,2.8178982734680176,-1.7849942445755005,0.0284769535064697
11081414316,210,11100000000,world,2.8295717239379883,-1.8089637756347656,0.0265994071960449
11141254026,211,11167000000,world,2.859266757965088,-1.849043369293213,0.027085542678833
11198810245,212,11200000000,world,2.876140594482422,-1.8670995235443115,0.0249645709991455
11251668347,213,11267000000,world,2.904432773590088,-1.9089515209198,0.0262887477874755
11314599010,214,11334000000,world,2.9339637756347656,-1.9513282775878904,0.0249104499816894
11380995354,215,11400000000,world,2.9623284339904785,-1.992633581161499,0.0259368419647216
11434234546,216,11467000000,world,2.989804744720459,-2.040958881378174,0.0193243026733398
11480527170,217,11500000000,world,3.019021511077881,-2.0625643730163574,0.0112800598144531
11528749528,218,11567000000,world,3.042952299118042,-2.1050710678100586,0.0117678642272949
11584921095,219,11600000000,world,3.058826208114624,-2.124208927154541,0.008805513381958
11639766289,220,11667000000,world,3.090643882751465,-2.163182497024536,0.0106041431427001
11707717073,221,11700000000,world,3.1004180908203125,-2.186521530151367,0.0113952159881591
11760911824,222,11800000000,world,3.1469640731811523,-2.2455334663391118,0.0084614753723144
11819905522,223,11867000000,world,3.177536964416504,-2.2895569801330566,0.0107250213623046
11877064338,224,11900000000,world,3.1887359619140625,-2.3096232414245605,0.0098967552185058
11933262290,225,11967000000,world,3.2190232276916504,-2.349173069000244,0.0080718994140625
11987504261,226,12000000000,world,3.2347607612609863,-2.371182441711426,0.007967472076416
12048056184,227,12067000000,world,3.264442205429077,-2.411742210388184,0.0092086791992187
12101234024,228,12134000000,world,3.2938685417175293,-2.450439691543579,0.0105547904968261
12158516554,229,12167000000,world,3.30861234664917,-2.4722108840942383,0.0104041099548339
12220942573,230,12267000000,world,3.353826999664306,-2.532339334487915,0.0090208053588867
12281577556,231,12300000000,world,3.369713306427002,-2.552783727645874,0.0073194503784179
12343438503,232,12367000000,world,3.396445035934448,-2.594000101089477,0.0078120231628417
12399662823,233,12400000000,world,3.409884214401245,-2.611104726791382,0.0097503662109375
12460187251,234,12467000000,world,3.440310001373291,-2.649540901184082,0.0099482536315917
12506875537,235,12567000000,world,3.484704971313477,-2.71314001083374,0.0078344345092773
12571944917,236,12600000000,world,3.4976038932800293,-2.7337570190429688,0.0115237236022949
12620369232,237,12667000000,world,3.52712631225586,-2.771613359451294,0.0100650787353515
12677611870,238,12700000000,world,3.54409122467041,-2.793541669845581,0.0081653594970703
12738643368,239,12734000000,world,3.5584592819213867,-2.812333106994629,0.0087270736694335
12795594621,240,12800000000,world,3.5881266593933105,-2.8549630641937256,0.0092368125915527
12844989077,241,12867000000,world,3.61290454864502,-2.8956923484802246,0.0092487335205078
12903917890,242,12900000000,world,3.624742984771729,-2.9181816577911377,0.0085649490356445
12960270947,243,13000000000,world,3.659417390823364,-2.98695969581604,0.0090022087097167
13014268371,244,13067000000,world,3.682279109954834,-3.030722618103028,0.0097723007202148
13064818393,245,13100000000,world,3.692507743835449,-3.0552244186401367,0.0104360580444335
13127174224,246,13167000000,world,3.7133851051330566,-3.098677396774292,0.0113377571105957
13181847739,247,13200000000,world,3.727048635482788,-3.1213219165802,0.0084114074707031
13228804188,248,13267000000,world,3.752856731414795,-3.1689281463623047,0.0087790489196777
13286903056,249,13300000000,world,3.763014554977417,-3.1924259662628174,0.0073976516723632
13338038846,250,13367000000,world,3.784504652023315,-3.2353439331054688,0.0078458786010742
13403136401,251,13400000000,world,3.794682502746582,-3.25858211517334,0.0110502243041992
13456139771,252,13500000000,world,3.8257977962493896,-3.327215671539306,0.0100383758544921
13509349926,253,13567000000,world,3.845475196838379,-3.3699440956115723,0.0083417892456054
13572200416,254,13600000000,world,3.865518093109131,-3.392057180404663,0.0046782493591308
13628150364,255,13667000000,world,3.903749465942383,-3.4627556800842285,0.0024843215942382
13682939672,256,13700000000,world,3.913232088088989,-3.4842398166656494,0.0055618286132812
13729713368,257,13767000000,world,3.9393296241760254,-3.5293736457824707,0.003880500793457
13790745277,258,13800000000,world,3.950985908508301,-3.551097869873047,0.0036110877990722
13844403026,259,13867000000,world,3.971603393554688,-3.597441434860229,0.0034623146057128
13914105400,260,13900000000,world,3.984950065612793,-3.6205575466156006,0.0024499893188476
13966594807,261,14000000000,world,4.0143818855285645,-3.6907553672790527,0.0036277770996093
14036134356,262,14067000000,world,4.03184175491333,-3.7399983406066895,0.0011758804321289
14095815762,263,14100000000,world,4.04752779006958,-3.761611461639404,0.0026178359985351
14158317407,264,14167000000,world,4.068154811859131,-3.809139728546143,0.0011544227600097
14219256439,265,14267000000,world,4.103485584259033,-3.8768467903137207,0.0013914108276367
14290893010,266,14300000000,world,4.112717151641846,-3.899268388748169,0.0030417442321777
14356763225,267,14367000000,world,4.132495880126953,-3.951815843582153,-0.0026354789733886
14422463452,268,14467000000,world,4.152693748474121,-4.020089626312256,0.0040626525878906
14484935692,269,14500000000,world,4.158256530761719,-4.042427062988281,0.005782127380371
14543635115,270,14567000000,world,4.174275875091553,-4.092875957489014,0.0041022300720214
14601317522,271,14600000000,world,4.179042816162109,-4.115641117095947,0.0037899017333984
14654539209,272,14700000000,world,4.193678855895996,-4.185341358184815,0.0113821029663085
14719699375,273,14734000000,world,4.195555686950684,-4.213905811309815,0.0060071945190429
14779180968,274,14800000000,world,4.209414482116699,-4.266495704650879,0.004190444946289
14826280919,275,14867000000,world,4.217596530914307,-4.314351558685303,0.0025081634521484
14883854937,276,14900000000,world,4.2150163650512695,-4.3391547203063965,0.0025062561035156
14932783169,277,14967000000,world,4.225823402404785,-4.394304275512695,-0.0035648345947265
14981459973,278,15000000000,world,4.218863010406494,-4.414209365844727,-0.0006179809570312
15033119927,279,15067000000,world,4.223814487457275,-4.464472770690918,0.0051832199096679
15072962893,280,15100000000,world,4.2273664474487305,-4.489057540893555,0.0051684379577636
15120016082,281,15167000000,world,4.233319282531738,-4.539762020111084,0.0052723884582519
15167358911,282,15200000000,world,4.235051155090332,-4.566437244415283,0.0042152404785156
15213332104,283,15267000000,world,4.245128631591797,-4.61659049987793,0.0036067962646484
15260501137,284,15300000000,world,4.241176605224609,-4.643187999725342,0.0021877288818359
15321727315,285,15367000000,world,4.247069358825684,-4.694082260131836,-0.0005655288696289
15373029473,286,15400000000,world,4.248461246490479,-4.71927547454834,-0.0011687278747558
15428098121,287,15467000000,world,4.253603935241699,-4.769134044647217,0.0002174377441406
15483914883,288,15500000000,world,4.252716064453125,-4.79287052154541,-0.000159740447998
15531678323,289,15567000000,world,4.25999116897583,-4.8440046310424805,4.100799560546875e-05
15584677729,290,15600000000,world,4.262153148651123,-4.868568420410156,0.0020074844360351
15636546507,291,15667000000,world,4.269018650054932,-4.91993522644043,0.0016922950744628
15684551666,292,15700000000,world,4.273382186889648,-4.942173480987549,0.0090241432189941
15737624740,293,15767000000,world,4.27697229385376,-4.992353439331055,0.003183364868164
15784582090,294,15800000000,world,4.281164169311523,-5.018192291259766,0.0016117095947265
15834668129,295,15867000000,world,4.286126613616943,-5.068183898925781,0.00506591796875
15886319387,296,15900000000,world,4.290964126586914,-5.094220161437988,0.0030741691589355
15926299875,297,15967000000,world,4.29044771194458,-5.143390655517578,0.0026865005493164
15981935845,298,16000000000,world,4.284563064575195,-5.164536952972412,0.0071415901184082
16025826532,299,16067000000,world,4.280871868133545,-5.218233585357666,-0.0012226104736328
16082328896,300,16100000000,world,4.281235218048096,-5.242913722991943,0.0026249885559082
16130919118,301,16167000000,world,4.27207612991333,-5.294191360473633,0.0029864311218261
16188034525,302,16200000000,world,4.265938758850098,-5.313712596893311,0.0069470405578613
16243820864,303,16267000000,world,4.257370471954346,-5.365356922149658,0.0078449249267578
16306912245,304,16300000000,world,4.249614238739014,-5.387219905853272,0.0115771293640136
16359966960,305,16400000000,world,4.231663703918457,-5.463111400604248,0.0079689025878906
16436174087,306,16467000000,world,4.221652984619141,-5.513263702392578,0.0075464248657226
16486880154,307,16500000000,world,4.214797496795654,-5.53544807434082,0.0094757080078125
16541202733,308,16567000000,world,4.201900482177734,-5.581653594970703,0.0113890171051025
16608434199,309,16634000000,world,4.1900177001953125,-5.630975723266602,0.0125622749328613
16671952864,310,16667000000,world,4.179380416870117,-5.6488776206970215,0.0111911296844482
16711059122,311,16767000000,world,4.152269840240479,-5.694197654724121,0.0050632953643798
16756113048,312,16800000000,world,4.057146072387695,-5.804481029510498,-0.0216486454010009
16810563772,313,16867000000,world,4.03355598449707,-5.849851131439209,-0.0212507247924804
16859681146,314,16900000000,world,4.025386810302734,-5.891452789306641,-0.0216691493988037
16903828493,315,16967000000,world,3.9989304542541504,-5.93370532989502,-0.0216131210327148
16946457652,316,17000000000,world,3.9862451553344727,-5.954453945159912,-0.0201489925384521
17007829013,317,17034000000,world,3.971531391143799,-5.976388931274414,-0.022375464439392
17052054393,318,17067000000,world,3.957082748413086,-5.997088432312012,-0.0233410596847534
17094367832,319,17134000000,world,3.928277492523194,-6.039063930511475,-0.0218521356582641
17141734098,320,17167000000,world,3.908596992492676,-6.05687141418457,-0.0243067741394042
17185973476,321,17200000000,world,3.892179965972901,-6.0750885009765625,-0.0262876749038696
17232105121,322,17267000000,world,3.869324207305908,-6.110108375549316,-0.0305794477462768
17276712718,323,17300000000,world,3.85237979888916,-6.129487991333008,-0.031207799911499
17322029765,324,17367000000,world,3.82387113571167,-6.170986175537109,-0.0306527614593505
17372044248,325,17400000000,world,3.807931423187256,-6.193254470825195,-0.0314815044403076
17412925295,326,17467000000,world,3.7757163047790527,-6.227789878845215,-0.0312960147857666
17459714113,327,17500000000,world,3.754771232604981,-6.245004177093506,-0.033827781677246
17497875057,328,17567000000,world,3.716851234436035,-6.279788017272949,-0.0339007377624511
17544007662,329,17600000000,world,3.6971921920776367,-6.294445514678955,-0.035230278968811
17603414762,330,17634000000,world,3.674594879150391,-6.310782432556152,-0.0360776185989379
17641375734,331,17700000000,world,3.634455680847168,-6.340880393981934,-0.0306934118270874
17699489940,332,17734000000,world,3.613902091979981,-6.355388641357422,-0.0308822393417358
17747267462,333,17767000000,world,3.592949390411377,-6.368470191955566,-0.0322699546813964
17795048774,334,17800000000,world,3.5817975997924805,-6.381023406982422,-0.0245686769485473
17836217027,335,17867000000,world,3.5431151390075684,-6.412590026855469,-0.0253399610519409
17881629243,336,17900000000,world,3.522622585296631,-6.427182197570801,-0.0264371633529663
17931557332,337,17967000000,world,3.4838147163391118,-6.460026741027832,-0.0246131420135498
17972441156,338,18000000000,world,3.463830947875977,-6.47568416595459,-0.0239261388778686
18015602061,339,18067000000,world,3.42463493347168,-6.510308742523193,-0.0258738994598388
18056946918,340,18100000000,world,3.4049668312072754,-6.522141456604004,-0.0263372659683227
18105798777,341,18167000000,world,3.3648056983947754,-6.556585788726807,-0.026149034500122
18158428807,342,18200000000,world,3.34597110748291,-6.570407390594482,-0.0260291099548339
18197074072,343,18234000000,world,3.324585437774658,-6.587347030639648,-0.0268312692642211
18250266031,344,18300000000,world,3.2852745056152344,-6.619785308837891,-0.0281097888946533
18310093793,345,18334000000,world,3.2650508880615234,-6.635122776031494,-0.0281288623809814
18372549290,346,18400000000,world,3.230810642242432,-6.665976047515869,-0.0194923877716064
18425883380,347,18467000000,world,3.190744400024414,-6.694995880126953,-0.018980860710144
18471784635,348,18500000000,world,3.1720027923583984,-6.711889266967773,-0.0183918476104736
18511339904,349,18567000000,world,3.1318612098693848,-6.743610858917236,-0.0189273357391357
18550684379,350,18600000000,world,3.112342357635498,-6.760538101196289,-0.0195549726486206
18612429606,351,18634000000,world,3.0932393074035645,-6.775795936584473,-0.01984703540802
18665445433,352,18700000000,world,3.0547609329223637,-6.804377555847168,-0.0201456546783447
18711802116,353,18767000000,world,3.013767719268799,-6.837207317352295,-0.019780158996582
18758729976,354,18800000000,world,2.994967460632324,-6.852081298828125,-0.0194615125656127
18808489618,355,18867000000,world,2.954916000366211,-6.884312629699707,-0.0206623077392578
18852757568,356,18900000000,world,2.936337471008301,-6.89937686920166,-0.0199164152145385
18907685246,357,18967000000,world,2.8968629837036133,-6.930673599243164,-0.0204626321792602
18956830871,358,19000000000,world,2.880006790161133,-6.942008018493652,-0.0158202648162841
19007806388,359,19067000000,world,2.840625762939453,-6.972131729125977,-0.0157251358032226
19049411316,360,19100000000,world,2.820953369140625,-6.989843845367432,-0.0160095691680908
19101100537,361,19134000000,world,2.800236701965332,-7.005999565124512,-0.0165090560913085
19148716932,362,19167000000,world,2.780069351196289,-7.020846843719482,-0.0161375999450683
19195380838,363,19200000000,world,2.7624330520629883,-7.035833835601807,-0.0163917541503906
19245370640,364,19267000000,world,2.7207765579223637,-7.068711757659912,-0.016165018081665
19298488913,365,19300000000,world,2.7014942169189453,-7.085755348205566,-0.0163016319274902
19342069651,366,19367000000,world,2.662860870361328,-7.116899490356445,-0.0175771713256835
19394568733,367,19400000000,world,2.643741607666016,-7.131933689117432,-0.0173847675323486
19456301794,368,19467000000,world,2.603605270385742,-7.162541389465332,-0.0177240371704101
19518347216,369,19534000000,world,2.5642614364624023,-7.1969757080078125,-0.0113608837127685
19566801907,370,19600000000,world,2.525899887084961,-7.22771692276001,-0.0106730461120605
19611901052,371,19667000000,world,2.484649658203125,-7.260303020477295,-0.011336326599121
19655308600,372,19700000000,world,2.465331077575684,-7.277602195739746,-0.0109121799468994
19702262229,373,19767000000,world,2.4267444610595703,-7.305349826812744,-0.0118646621704101
19759741270,374,19800000000,world,2.406294822692871,-7.323295593261719,-0.0107102394104003
19807608157,375,19867000000,world,2.36728572845459,-7.352566242218018,-0.0117688179016113
19848003230,376,19900000000,world,2.349543571472168,-7.367319107055664,-0.0108344554901123
19901731587,377,19934000000,world,2.328407287597656,-7.386374473571777,-0.009765625
19946702692,378,19967000000,world,2.3097124099731445,-7.401588916778564,-0.0099046230316162
19995988220,379,20000000000,world,2.289966583251953,-7.416340351104736,-0.0107765197753906
20047941099,380,20067000000,world,2.249429702758789,-7.447739124298096,-0.011232852935791
20100815369,381,20100000000,world,2.2307024002075195,-7.464502334594727,-0.0109181404113769
20151070472,382,20167000000,world,2.191255569458008,-7.495056629180908,-0.0062203407287597
20213036306,383,20234000000,world,2.1517457962036133,-7.526137351989746,-0.0055370330810546
20266828193,384,20300000000,world,2.1121368408203125,-7.559442520141602,-0.0045874118804931
20313937714,385,20367000000,world,2.079784393310547,-7.582139015197754,-0.006636619567871
20366343788,386,20400000000,world,2.0570945739746094,-7.59571647644043,-0.005690574645996
20436654605,387,20467000000,world,2.0109338760375977,-7.618853569030762,-0.0066437721252441
20487748801,388,20500000000,world,1.988694190979004,-7.621654987335205,-0.0049185752868652
20535492620,389,20567000000,world,1.9426755905151367,-7.643064975738525,-0.0028923749923706
20581458155,390,20600000000,world,1.919358253479004,-7.654197692871094,-0.0039674043655395
20629102680,391,20667000000,world,1.871664047241211,-7.675788402557373,-0.0046786069869995
20682448122,392,20700000000,world,1.8490476608276367,-7.686368942260742,-0.0059179067611694
20720042623,393,20767000000,world,1.803105354309082,-7.705222129821777,-0.0059624910354614
20774309599,394,20800000000,world,1.779315948486328,-7.716087818145752,-0.0064160823822021
20832814265,395,20867000000,world,1.7317514419555664,-7.735212326049805,-0.0047383308410644
20882276854,396,20900000000,world,1.716167449951172,-7.732719421386719,-0.0022859573364257
20933894872,397,20967000000,world,1.668863296508789,-7.754627227783203,-0.002387523651123
20986522601,398,21000000000,world,1.645573616027832,-7.766819953918457,-0.0016505718231201
21035206138,399,21067000000,world,1.5990562438964844,-7.786088943481445,-0.0024001598358154
21086433912,400,21100000000,world,1.5763177871704102,-7.796282768249512,-0.0028431415557861
21131447760,401,21167000000,world,1.5282135009765625,-7.818812370300293,-0.0023443698883056
21174751120,402,21200000000,world,1.5044927597045898,-7.830491542816162,-0.0021847486495971
21226241486,403,21267000000,world,1.4587955474853516,-7.851460456848144,-0.0026301145553588
21275070516,404,21300000000,world,1.4366950988769531,-7.8625288009643555,-0.0021102428436279
21328785307,405,21367000000,world,1.3958415985107422,-7.877988338470459,-6.103515625e-05
21377736181,406,21400000000,world,1.3739356994628906,-7.887805938720703,-0.000162124633789
21424219479,407,21467000000,world,1.3257341384887695,-7.9104509353637695,1.9431114196777344e-05
21469995782,408,21500000000,world,1.3036832809448242,-7.918622970581055,0.0003770589828491
21520382591,409,21567000000,world,1.2578763961791992,-7.941165924072266,0.0002722740173339
21570698276,410,21600000000,world,1.2339353561401367,-7.952739715576172,5.7220458984375e-05
21617341735,411,21667000000,world,1.1890687942504885,-7.973986625671387,-2.920627593994141e-05
21661940715,412,21700000000,world,1.1684818267822266,-7.9841508865356445,0.0013904571533203
21710629189,413,21767000000,world,1.1190919876098633,-8.006326675415039,0.0009921789169311
21764274197,414,21800000000,world,1.0981063842773438,-8.017385482788086,0.0006232261657714
21818239036,415,21867000000,world,1.0519142150878906,-8.038188934326172,0.0008190870285034
21874461442,416,21900000000,world,1.0286455154418943,-8.049494743347168,0.000781774520874
21933684410,417,21967000000,world,0.980677604675293,-8.071587562561035,0.0009820461273193
21985165342,418,22000000000,world,0.9604339599609376,-8.085165023803711,0.0035499334335327
22031251764,419,22067000000,world,0.9150123596191406,-8.106348991394043,0.0043221712112426
22080040591,420,22100000000,world,0.8910160064697266,-8.118023872375488,0.003298282623291
22126790963,421,22167000000,world,0.8443460464477539,-8.134309768676758,0.0037893056869506
22170831116,422,22200000000,world,0.8190460205078125,-8.14200210571289,0.0032647848129272
22220891645,423,22267000000,world,0.7702426910400391,-8.155630111694336,0.0029952526092529
22279456910,424,22300000000,world,0.7465934753417969,-8.163437843322754,0.0042107105255126
22334225641,425,22367000000,world,0.6968145370483398,-8.175914764404297,0.0044620037078857
22402010074,426,22400000000,world,0.6717901229858398,-8.179747581481934,0.004014253616333
22461802883,427,22467000000,world,0.6208992004394531,-8.189205169677734,0.0043256282806396
22509992448,428,22567000000,world,0.5508012771606445,-8.19743824005127,0.0073459148406982
22557792257,429,22600000000,world,0.5267906188964844,-8.202446937561035,0.0051305294036865
22600581062,430,22634000000,world,0.4997949600219726,-8.203444480895996,0.0038859844207763
22652852814,431,22667000000,world,0.4780721664428711,-8.205371856689453,0.0046756267547607
22706457593,432,22734000000,world,0.4277124404907226,-8.207944869995117,0.007054328918457
22759181385,433,22800000000,world,0.3762674331665039,-8.20962142944336,0.0051910877227783
22810570939,434,22867000000,world,0.3272199630737304,-8.204996109008789,0.0077714920043945
22862499925,435,22900000000,world,0.298405647277832,-8.205577850341797,0.0045795440673828
22907399160,436,22967000000,world,0.2491908073425293,-8.198533058166504,0.005528450012207
22953724954,437,23000000000,world,0.2268567085266113,-8.192906379699707,0.006136417388916
23008728950,438,23034000000,world,0.2002291679382324,-8.189475059509277,0.0060176849365234
23056001128,439,23100000000,world,0.1532649993896484,-8.177510261535645,0.0081758499145507
23117285660,440,23167000000,world,0.1077189445495605,-8.161979675292969,0.0108256340026855
23168654793,441,23200000000,world,0.0841331481933593,-8.153221130371094,0.0080323219299316
23218845930,442,23267000000,world,0.0368833541870117,-8.138120651245117,0.0075387954711914
23273330563,443,23300000000,world,0.0140957832336425,-8.12965202331543,0.0042552947998046
23319894345,444,23367000000,world,-0.0323672294616699,-8.107234954833984,0.0069756507873535
23365557372,445,23400000000,world,-0.0521249771118164,-8.096198081970215,0.0081820487976074
23418792452,446,23467000000,world,-0.0966243743896484,-8.071224212646484,0.0081133842468261
23471937422,447,23500000000,world,-0.1176271438598632,-8.058175086975098,0.0068507194519042
23519421418,448,23567000000,world,-0.1577143669128418,-8.03299331665039,0.0100412368774414
23576704283,449,23600000000,world,-0.1782894134521484,-8.016562461853027,0.0087146759033203
23617042581,450,23667000000,world,-0.2186403274536132,-7.987533092498779,0.0099568367004394
23662105525,451,23700000000,world,-0.238710880279541,-7.974093914031982,0.0095801353454589
23705412693,452,23767000000,world,-0.2825970649719238,-7.946393966674805,0.0085601806640625
23762039959,453,23800000000,world,-0.3026766777038574,-7.934033393859863,0.010134220123291
23814050104,454,23867000000,world,-0.3449559211730957,-7.905797958374023,0.0097036361694335
23871069787,455,23900000000,world,-0.3652830123901367,-7.892910957336426,0.0116233825683593
23919335493,456,23967000000,world,-0.4113788604736328,-7.8672990798950195,0.0100970268249511
23970014501,457,24000000000,world,-0.4301996231079101,-7.853875160217285,0.0122590065002441
24030234553,458,24067000000,world,-0.4799261093139648,-7.8257293701171875,0.0179114341735839
24074046823,459,24100000000,world,-0.4999399185180664,-7.811211109161377,0.0161514282226562
24128349020,460,24167000000,world,-0.5400485992431641,-7.784772872924805,0.0169048309326171
24184626480,461,24200000000,world,-0.5633788108825684,-7.770781517028809,0.0166401863098144
24245333586,462,24267000000,world,-0.6072235107421875,-7.744455337524414,0.0166306495666503
24316313770,463,24300000000,world,-0.6299886703491211,-7.731295585632324,0.0170636177062988
24374056708,464,24400000000,world,-0.6909570693969727,-7.693138122558594,0.0173869132995605
24433059152,465,24467000000,world,-0.7304930686950684,-7.66589879989624,0.0151519775390625
24486801286,466,24500000000,world,-0.753756046295166,-7.654315948486328,0.0138411521911621
24537120608,467,24567000000,world,-0.7942538261413574,-7.623744964599609,0.0148534774780273
24582140201,468,24600000000,world,-0.8125672340393066,-7.609916687011719,0.0158629417419433
24633520484,469,24667000000,world,-0.8579072952270508,-7.583520889282227,0.01475191116333
24677708063,470,24700000000,world,-0.8819394111633301,-7.570589065551758,0.0146808624267578
24731778421,471,24767000000,world,-0.9254508018493652,-7.541443824768066,0.0147123336791992
24781317412,472,24800000000,world,-0.9450383186340332,-7.527214527130127,0.0135574340820312
24834074133,473,24867000000,world,-0.9874114990234376,-7.501929759979248,0.0140762329101562
24884811597,474,24900000000,world,-1.0091209411621094,-7.488190650939941,0.0144824981689453
24940519504,475,24967000000,world,-1.051645278930664,-7.461992740631103,0.0125288963317871
25001321172,476,25000000000,world,-1.0694694519042969,-7.4507341384887695,0.0152130126953125
25061970254,477,25100000000,world,-1.1304521560668943,-7.405399799346924,0.0133328437805175
25114885639,478,25167000000,world,-1.1694841384887695,-7.370333671569824,0.0123777389526367
25166253507,479,25200000000,world,-1.1846909523010254,-7.352663993835449,0.013920783996582
25218260317,480,25267000000,world,-1.2208280563354492,-7.314553260803223,0.012211799621582
25266536899,481,25300000000,world,-1.2400588989257812,-7.301589012145996,0.0142655372619628
25319240220,482,25367000000,world,-1.2715215682983398,-7.261120319366455,0.0129985809326171
25369764989,483,25400000000,world,-1.2872579097747805,-7.240740776062012,0.0107350349426269
25415275577,484,25467000000,world,-1.3200726509094238,-7.196398735046387,0.0107078552246093
25466677720,485,25500000000,world,-1.3334519863128662,-7.178237915039063,0.0102934837341308
25517650700,486,25567000000,world,-1.364788293838501,-7.137401103973389,0.0105977058410644
25572397550,487,25600000000,world,-1.3801140785217283,-7.118185043334961,0.0096230506896972
25623736048,488,25667000000,world,-1.409510612487793,-7.076803207397461,0.0106658935546875
25678029948,489,25700000000,world,-1.4279563426971436,-7.054508209228516,0.0096230506896972
25727234212,490,25767000000,world,-1.461575269699097,-7.014859199523926,0.0072689056396484
25777663313,491,25800000000,world,-1.475940227508545,-6.996528625488281,0.0079636573791503
25821034706,492,25867000000,world,-1.5097904205322266,-6.957423210144043,0.0094003677368164
25863417775,493,25900000000,world,-1.5233395099639893,-6.936751365661621,0.0101256370544433
25910732340,494,25967000000,world,-1.559032678604126,-6.8950934410095215,0.0080313682556152
25964789154,495,26000000000,world,-1.5744900703430176,-6.874919891357422,0.006418228149414
26028217469,496,26067000000,world,-1.6057381629943848,-6.836322784423828,0.008254051208496
26073154376,497,26100000000,world,-1.6215555667877195,-6.817254066467285,0.0080537796020507
26123715214,498,26167000000,world,-1.6532750129699707,-6.776577949523926,0.0074133872985839
26170758978,499,26200000000,world,-1.6721296310424805,-6.755450248718262,0.0067501068115234
26223036387,500,26267000000,world,-1.7024314403533936,-6.717988967895508,0.0079851150512695
26274358626,501,26300000000,world,-1.7199397087097168,-6.697471618652344,0.0077385902404785
26331266947,502,26367000000,world,-1.7503225803375244,-6.658865928649902,0.0073962211608886
26392593391,503,26400000000,world,-1.766270637512207,-6.637953758239746,0.0065264701843261
26446421740,504,26467000000,world,-1.7969484329223633,-6.598851203918457,0.0067296028137207
26509443625,505,26500000000,world,-1.8141343593597408,-6.578488349914551,0.0062823295593261
26554381126,506,26600000000,world,-1.8562211990356443,-6.522724628448486,0.0070762634277343
26605505362,507,26667000000,world,-1.8895049095153809,-6.4840898513793945,0.0085535049438476
26655543564,508,26700000000,world,-1.9053239822387693,-6.464875221252441,0.0080037117004394
26710428415,509,26734000000,world,-1.920280694961548,-6.443049907684326,0.0075407028198242
26764763205,510,26800000000,world,-1.953528881072998,-6.405443668365479,0.0073308944702148
26820444324,511,26867000000,world,-1.9853127002716064,-6.365962028503418,0.0085096359252929
26877931612,512,26900000000,world,-2.0002710819244385,-6.346477508544922,0.0086216926574707
26929797963,513,26967000000,world,-2.030543804168701,-6.307294845581055,0.0072264671325683
26981821476,514,27000000000,world,-2.048788785934448,-6.285627365112305,0.0064830780029296
27029282540,515,27067000000,world,-2.079317331314087,-6.246723175048828,0.0071954727172851
27077440574,516,27100000000,world,-2.0956764221191406,-6.228096961975098,0.0058550834655761
27124495827,517,27167000000,world,-2.130645513534546,-6.186053276062012,0.0053777694702148
27177390576,518,27200000000,world,-2.144572257995605,-6.166957378387451,0.0060763359069824
27224570188,519,27267000000,world,-2.175816535949707,-6.127012252807617,0.0057845115661621
27273181375,520,27300000000,world,-2.1919984817504883,-6.107141494750977,0.0053877830505371
27321774511,521,27367000000,world,-2.2228946685791016,-6.06798267364502,0.0051026344299316
27381000382,522,27400000000,world,-2.23812198638916,-6.048308849334717,0.0045304298400878
27433663817,523,27467000000,world,-2.2704648971557617,-6.008683681488037,0.0055937767028808
27483372667,524,27500000000,world,-2.2831897735595703,-5.986001968383789,0.0050811767578125
27539365114,525,27567000000,world,-2.3112268447875977,-5.94206428527832,0.0049300193786621
27599929072,526,27600000000,world,-2.321345090866089,-5.921236515045166,0.0045056343078613
27649771364,527,27667000000,world,-2.346851110458374,-5.879178524017334,0.0083804130554199
27701031693,528,27700000000,world,-2.3602454662323,-5.855820655822754,0.006880760192871
27758058138,529,27800000000,world,-2.389378309249878,-5.785876750946045,0.0056090354919433
27810872232,530,27867000000,world,-2.4094603061676025,-5.740027904510498,0.0058026313781738
27870125627,531,27900000000,world,-2.4181509017944336,-5.717986106872559,0.0052742958068847
27928231810,532,27967000000,world,-2.438222169876098,-5.670114040374756,0.0061488151550292
27985851638,533,28000000000,world,-2.448819637298584,-5.647865295410156,0.0059118270874023
28042479732,534,28067000000,world,-2.468768119812012,-5.602541923522949,0.0057392120361328
28094958663,535,28134000000,world,-2.493579864501953,-5.555599212646484,0.005709171295166
28141876570,536,28167000000,world,-2.502671003341675,-5.533402919769287,0.0051097869873046
28197955427,537,28234000000,world,-2.52433443069458,-5.48619556427002,0.0039396286010742
28248472443,538,28267000000,world,-2.53664493560791,-5.46226692199707,0.0056128501892089
28303706625,539,28334000000,world,-2.559357166290283,-5.416496276855469,0.0053062438964843
28357868651,540,28367000000,world,-2.5671534538269043,-5.393366813659668,0.004521369934082
28419291193,541,28400000000,world,-2.576303005218506,-5.369778156280518,0.0047359466552734
28478554220,542,28500000000,world,-2.600616455078125,-5.296847820281982,0.0032663345336914
28530676319,543,28567000000,world,-2.617079973220825,-5.247232913970947,0.0035247802734375
28591227724,544,28600000000,world,-2.622587203979492,-5.223684787750244,0.0036077499389648
28648643054,545,28667000000,world,-2.6376867294311523,-5.17460823059082,0.0067095756530761
28702191318,546,28734000000,world,-2.64683198928833,-5.124685764312744,0.0060744285583496
28742621483,547,28800000000,world,-2.6574742794036865,-5.074524402618408,0.0044550895690917
28790730992,548,28834000000,world,-2.6602625846862797,-5.049764156341553,0.0053577423095703
28838915534,549,28867000000,world,-2.662216663360596,-5.026280403137207,0.0044722557067871
28891768759,550,28900000000,world,-2.6664834022521973,-5.000972747802734,0.0037007331848144
28939683922,551,28967000000,world,-2.6711461544036865,-4.9502153396606445,0.0044813156127929
28999914459,552,29000000000,world,-2.674079179763794,-4.924443244934082,0.0034751892089843
29060817570,553,29100000000,world,-2.676105499267578,-4.849790096282959,0.0039033889770507
29121398403,554,29167000000,world,-2.6721208095550537,-4.799702167510986,0.005803108215332
29168615793,555,29200000000,world,-2.6701371669769287,-4.774625301361084,0.0047221183776855
29209716898,556,29267000000,world,-2.6670854091644287,-4.7233195304870605,0.0020051002502441
29270890661,557,29300000000,world,-2.660352230072021,-4.699141502380371,0.0047593116760253
29323389993,558,29367000000,world,-2.651932716369629,-4.64960241317749,0.0047216415405273
29377019982,559,29400000000,world,-2.645094871520996,-4.627543449401856,0.0048675537109375
29430421873,560,29467000000,world,-2.634006261825561,-4.580453395843506,0.0073189735412597
29480846692,561,29500000000,world,-2.6305840015411377,-4.551929950714111,0.0061593055725097
29533706362,562,29567000000,world,-2.6235969066619877,-4.505526065826416,0.0068602561950683
29593208374,563,29600000000,world,-2.620781421661377,-4.478115081787109,0.0052676200866699
29647798543,564,29667000000,world,-2.6126937866210938,-4.428585529327393,0.0066399574279785
29719611783,565,29734000000,world,-2.605109691619873,-4.3809356689453125,0.0047583580017089
29764855404,566,29800000000,world,-2.598390817642212,-4.330574989318848,0.0036768913269042
29812794569,567,29867000000,world,-2.5916991233825684,-4.280668258666992,0.0048637390136718
29858750784,568,29900000000,world,-2.5902671813964844,-4.253562450408936,0.0032472610473632
29911689010,569,29967000000,world,-2.5799660682678223,-4.204123020172119,0.0032014846801757
29961144853,570,30000000000,world,-2.57688307762146,-4.181895732879639,0.0056853294372558
30012844630,571,30067000000,world,-2.5697834491729736,-4.131480693817139,0.003246784210205
30066489901,572,30100000000,world,-2.5645382404327397,-4.105713844299316,0.0040774345397949
30120667189,573,30134000000,world,-2.563288688659668,-4.082887172698975,0.0040163993835449
30174405939,574,30200000000,world,-2.556281328201294,-4.032209396362305,0.0040540695190429
30224680906,575,30267000000,world,-2.5488319396972656,-3.982814311981201,0.0031185150146484
30273622819,576,30300000000,world,-2.5464892387390137,-3.959529638290405,0.0042462348937988
30324539613,577,30367000000,world,-2.5374090671539307,-3.9077346324920654,0.0030560493469238
30374349567,578,30400000000,world,-2.5321762561798096,-3.88568639755249,0.002577781677246
30424833351,579,30467000000,world,-2.5225040912628174,-3.8344550132751465,0.0024585723876953
30478310524,580,30500000000,world,-2.514463186264038,-3.811776638031006,0.0024905204772949
30525967731,581,30567000000,world,-2.4989442825317383,-3.761628389358521,-0.0004887580871582
30570982343,582,30600000000,world,-2.489305019378662,-3.7418205738067623,0.0050215721130371
30621848932,583,30667000000,world,-2.4684605598449707,-3.69653844833374,0.0015807151794433
30668549215,584,30700000000,world,-2.458324909210205,-3.673635005950928,0.0055727958679199
30714990059,585,30767000000,world,-2.4355382919311523,-3.628114700317383,0.0023789405822753
30770220087,586,30800000000,world,-2.425956010818481,-3.6046414375305176,0.0026783943176269
30827994044,587,30867000000,world,-2.405564308166504,-3.5587174892425537,0.0032625198364257
30874418957,588,30900000000,world,-2.3954248428344727,-3.535530567169189,0.001136302947998
30934581550,589,30967000000,world,-2.3783576488494877,-3.4876060485839844,0.0020461082458496
30987637026,590,31000000000,world,-2.367271661758423,-3.464726448059082,0.0021209716796875
31030619183,591,31067000000,world,-2.3493924140930176,-3.4183783531188965,0.0011789798736572
31079982554,592,31100000000,world,-2.3389039039611816,-3.3962533473968506,0.0013420581817626
31125921081,593,31167000000,world,-2.320046186447144,-3.348815441131592,-0.0017931461334228
31171569937,594,31200000000,world,-2.3104965686798096,-3.3260750770568848,-0.0008285045623779
31220678296,595,31267000000,world,-2.290393114089966,-3.279240846633911,-0.000455617904663
31280293977,596,31300000000,world,-2.281689167022705,-3.2561681270599365,-0.000812292098999
31329113051,597,31367000000,world,-2.2600526809692383,-3.210564136505127,0.001542329788208
31384107980,598,31400000000,world,-2.2509090900421143,-3.186441421508789,0.0022745132446289
31433172666,599,31467000000,world,-2.2312722206115723,-3.14016342163086,0.0004036426544189
31489919770,600,31534000000,world,-2.2130062580108643,-3.0940427780151367,0.0027391910552978
31538386930,601,31567000000,world,-2.2036092281341557,-3.071941375732422,0.0019435882568359
31584797030,602,31600000000,world,-2.193817377090454,-3.0483953952789307,0.0027551651000976
31623975050,603,31667000000,world,-2.1744723320007324,-3.001595020294189,0.0014257431030273
31667534272,604,31700000000,world,-2.161079406738281,-2.9800124168396,0.0006022453308105
31708458537,605,31767000000,world,-2.146634340286255,-2.9472222328186035,0.0029613971710205
31759720488,606,31800000000,world,-2.1215760707855225,-2.918965101242065,0.001115083694458
31812905370,607,31867000000,world,-2.098771333694458,-2.873443841934204,0.0016911029815673
31871308040,608,31900000000,world,-2.0866994857788086,-2.8518760204315186,0.0016915798187255
31927082993,609,31967000000,world,-2.0628674030303955,-2.807168483734131,0.0018279552459716
31980619951,610,32000000000,world,-2.0571835041046143,-2.782602071762085,-0.0005726814270019
32030547098,611,32067000000,world,-2.034559965133667,-2.7378034591674805,2.6702880859375e-05
32074217316,612,32100000000,world,-2.022946357727051,-2.7162210941314697,0.0003230571746826
32124428974,613,32167000000,world,-2.0010809898376465,-2.671083927154541,-6.246566772460938e-05
32167673738,614,32200000000,world,-1.9884406328201292,-2.648905038833618,0.0003242492675781
32213488383,615,32267000000,world,-1.965104103088379,-2.604052782058716,-0.0009918212890625
32268498053,616,32300000000,world,-1.95283043384552,-2.584785461425781,-0.0007696151733398
32329354609,617,32367000000,world,-1.9324241876602173,-2.538522720336914,-0.0014717578887939
32378188045,618,32400000000,world,-1.9189207553863523,-2.5166447162628174,-0.0008223056793212
32426335114,619,32467000000,world,-1.8976216316223145,-2.4747073650360107,-0.0028448104858398
32480875204,620,32500000000,world,-1.8861083984375,-2.4528043270111084,-0.0031907558441162
32530619040,621,32567000000,world,-1.86250638961792,-2.40824294090271,-0.0036966800689697
32582842064,622,32600000000,world,-1.8509705066680908,-2.38707971572876,-0.0039963722229003
32626083975,623,32667000000,world,-1.8239176273345947,-2.3426826000213623,-0.0040545463562011
32674170095,624,32700000000,world,-1.8120582103729248,-2.320990800857544,-0.0034091472625732
32727952159,625,32767000000,world,-1.7887604236602783,-2.275378942489624,-0.0040788650512695
32772152020,626,32800000000,world,-1.7759604454040527,-2.2535171508789062,-0.004296064376831
32826696432,627,32867000000,world,-1.753434181213379,-2.2107436656951904,-0.0051300525665283
32879749519,628,32900000000,world,-1.7404546737670898,-2.1894326210021973,-0.0058882236480712
32924704220,629,32967000000,world,-1.719038724899292,-2.1433537006378174,-0.0042786598205566
32977445371,630,33000000000,world,-1.7079790830612185,-2.1204984188079834,-0.002988576889038
33025244274,631,33067000000,world,-1.6824901103973389,-2.076007843017578,-0.0056724548339843
33067113080,632,33100000000,world,-1.6702929735183716,-2.057201385498047,-0.0043032169342041
33107949524,633,33167000000,world,-1.64570951461792,-2.0080368518829346,-0.0082247257232666
33154182366,634,33200000000,world,-1.6350277662277222,-1.986996293067932,-0.0088226795196533
33205686231,635,33267000000,world,-1.6104631423950195,-1.942982792854309,-0.0085587501525878
33260366077,636,33300000000,world,-1.600186824798584,-1.9200828075408936,-0.0084147453308105
33308858620,637,33367000000,world,-1.5762710571289062,-1.875744342803955,-0.0096545219421386
33358548975,638,33400000000,world,-1.5639410018920898,-1.8559834957122805,-0.0096683502197265
33409892285,639,33467000000,world,-1.540959358215332,-1.8103868961334229,-0.009143590927124
33459791769,640,33500000000,world,-1.5288950204849243,-1.7884793281555176,-0.0092854499816894
33499255562,641,33567000000,world,-1.5046874284744265,-1.7434598207473757,-0.0092241764068603
33548268696,642,33600000000,world,-1.4968665838241575,-1.7218046188354492,-0.007725715637207
33606033062,643,33634000000,world,-1.4828938245773315,-1.69889497756958,-0.0099687576293945
33657206881,644,33667000000,world,-1.4709287881851196,-1.6756858825683594,-0.009871482849121
33699650079,645,33767000000,world,-1.4328070878982544,-1.6154407262802124,-0.0087270736694335
33757518491,646,33800000000,world,-1.4234333038330078,-1.5922467708587646,-0.0091465711593627
33808249981,647,33867000000,world,-1.399181604385376,-1.5474897623062134,-0.0099084377288818
33858761375,648,33900000000,world,-1.3885191679000854,-1.525740623474121,-0.008744478225708
33903847724,649,33967000000,world,-1.3639109134674072,-1.483470797538757,-0.0076313018798828
33957660026,650,34000000000,world,-1.3540432453155518,-1.4572885036468506,-0.0080671310424804
34000041294,651,34067000000,world,-1.3309526443481443,-1.4132976531982422,-0.0095270872116088
34056405106,652,34100000000,world,-1.3176724910736084,-1.3921524286270142,-0.0061577558517456
34113145464,653,34167000000,world,-1.2959110736846924,-1.3467533588409424,-0.0066292285919189
34157484585,654,34200000000,world,-1.281304955482483,-1.3246287107467651,-0.0080049037933349
34223406761,655,34267000000,world,-1.2595967054367063,-1.281788945198059,-0.0046607255935668
34270942928,656,34300000000,world,-1.2476253509521484,-1.257978916168213,-0.0065969228744506
34324396011,657,34367000000,world,-1.2250401973724363,-1.2124533653259275,-0.0074323415756225
34379835922,658,34400000000,world,-1.214325785636902,-1.1901676654815674,-0.0074180364608764
34434726617,659,34467000000,world,-1.1924688816070557,-1.1467334032058716,-0.0079561471939086
34478492123,660,34500000000,world,-1.1777832508087158,-1.1264212131500244,-0.0074044466018676
