%time,seq,stamp,frame_id,child_frame_id,x,y,z
0,0,0,world,base_link,0.0,0.0,0.0
16209196,1,20000000,world,base_link,-2.1316282072803006e-14,1.7763568394002505e-15,2.883006333664895e-13
38749267,2,40000000,world,base_link,-1.4210854715202004e-14,8.881784197001252e-16,2.0539819844955787e-13
56310007,3,60000000,world,base_link,-3.552713678800501e-15,0.0,1.149982886694545e-13
76294031,4,80000000,world,base_link,3.552713678800501e-15,-8.881784197001252e-16,1.9800133754799276e-14
97387071,5,100000000,world,base_link,-2.1316282072803006e-14,8.881784197001252e-16,3.0350028046299826e-13
116308489,6,120000000,world,base_link,-1.4210854715202004e-14,-8.881784197001252e-16,2.228009443605572e-13
136825630,7,140000000,world,base_link,-7.105427357601002e-15,-8.881784197001252e-16,1.3340023530261647e-13
162883947,8,160000000,world,base_link,0.0,-2.6645352591003757e-15,3.9201281110123887e-14
207577912,9,180000000,world,base_link,-8.171241461241152e-14,-8.881784197001252e-16,7.929004675055751e-13
207600870,10,200000000,world,base_link,-1.7763568394002505e-14,-8.881784197001252e-16,2.3999899290139126e-13
257681126,11,220000000,world,base_link,-1.0658141036401503e-14,-1.7763568394002505e-15,1.5160095401256513e-13
257715167,12,240000000,world,base_link,-3.552713678800501e-15,-3.552713678800501e-15,5.840120054223519e-14
307572618,13,260000000,world,base_link,1.0658141036401503e-14,-5.329070518200751e-15,-4.020048183228653e-14
307598452,14,280000000,world,base_link,-2.4868995751603507e-14,-2.6645352591003757e-15,2.5679805504275066e-13
307630198,15,300000000,world,base_link,-1.7763568394002505e-14,-3.552713678800501e-15,1.6979820327556183e-13
357546001,16,320000000,world,base_link,-7.105427357601002e-15,-4.440892098500626e-15,7.750050601273983e-14
357570007,17,340000000,world,base_link,0.0,-5.329070518200751e-15,-2.0001361678012586e-14
362251408,18,360000000,world,base_link,-2.842170943040401e-14,-4.440892098500626e-15,2.7300037230837404e-13
398686125,19,380000000,world,base_link,-2.1316282072803006e-14,-4.440892098500626e-15,1.8770054954764248e-13
447573899,20,400000000,world,base_link,-3.552713678800501e-15,-5.329070518200751e-15,9.639858356003117e-14
497743025,21,420000000,world,base_link,-3.552713678800501e-15,-7.105427357601002e-15,0.0
497784313,22,440000000,world,base_link,-2.842170943040401e-14,-4.440892098500626e-15,2.883006333664895e-13
497803731,23,460000000,world,base_link,-1.7763568394002505e-14,-6.217248937900877e-15,2.0530105393490317e-13
497819390,24,480000000,world,base_link,-1.0658141036401503e-14,-6.217248937900877e-15,1.149982886694545e-13
547630473,25,500000000,world,base_link,-7.105427357601002e-15,-7.105427357601002e-15,1.969951979319262e-14
547656481,26,520000000,world,base_link,-2.842170943040401e-14,-5.329070518200751e-15,3.0350028046299826e-13
547673200,27,540000000,world,base_link,-2.1316282072803006e-14,-7.105427357601002e-15,2.228980888752119e-13
584564077,28,560000000,world,base_link,-1.0658141036401503e-14,-7.993605777301127e-15,1.3350084926422312e-13
584605494,29,580000000,world,base_link,-3.552713678800501e-15,-9.769962616701378e-15,3.929842562477859e-14
637570318,30,600000000,world,base_link,-8.171241461241152e-14,-7.993605777301127e-15,7.929004675055751e-13
637594331,31,620000000,world,base_link,-1.7763568394002505e-14,-7.993605777301127e-15,2.400996068629979e-13
697768096,32,640000000,world,base_link,-7.105427357601002e-15,-8.881784197001252e-15,1.5179871248882648e-13
697863974,33,660000000,world,base_link,0.0,-9.769962616701378e-15,5.859895901849654e-14
697962137,34,680000000,world,base_link,1.7763568394002505e-14,-1.1546319456101628e-14,-4.009986787067987e-14
747642365,35,700000000,world,base_link,-1.4210854715202004e-14,-9.769962616701378e-15,2.568986690043573e-13
757190014,36,720000000,world,base_link,0.0,-9.769962616701378e-15,1.6989881723716849e-13
797681179,37,740000000,world,base_link,1.0658141036401503e-14,-1.1546319456101628e-14,7.769826448900119e-14
797719703,38,760000000,world,base_link,2.1316282072803006e-14,-1.2434497875801753e-14,-1.9800133754799276e-14
797790897,39,780000000,world,base_link,-3.552713678800501e-15,-1.0658141036401503e-14,2.731009862699807e-13
847585802,40,800000000,world,base_link,7.105427357601002e-15,-1.1546319456101628e-14,1.8780116350924914e-13
847625260,41,820000000,world,base_link,2.1316282072803006e-14,-1.1546319456101628e-14,9.649919752163783e-14
864315672,42,840000000,world,base_link,2.4868995751603507e-14,-1.3322676295501878e-14,2.0122792321330962e-16
864382622,43,860000000,world,base_link,7.105427357601002e-15,-1.1546319456101628e-14,2.8840124732809613e-13
907579783,44,880000000,world,base_link,1.4210854715202004e-14,-1.2434497875801753e-14,2.0549881241116452e-13
907600493,45,900000000,world,base_link,2.4868995751603507e-14,-1.3322676295501878e-14,1.151995165926678e-13
957651805,46,920000000,world,base_link,3.197442310920451e-14,-1.4210854715202004e-14,1.990074771640593e-14
957687501,47,940000000,world,base_link,1.4210854715202004e-14,-1.2434497875801753e-14,3.036008944246049e-13
1007608040,48,960000000,world,base_link,2.1316282072803006e-14,-1.4210854715202004e-14,2.2299870283681855e-13
1007635011,49,980000000,world,base_link,3.197442310920451e-14,-1.4210854715202004e-14,1.3360146322582978e-13
1007647696,50,1000000000,world,base_link,4.263256414560601e-14,-1.5987211554602254e-14,3.939903958638524e-14
1057562193,51,1020000000,world,base_link,-3.197442310920451e-14,-1.4210854715202004e-14,7.930010814671817e-13
1057580839,52,1040000000,world,base_link,3.197442310920451e-14,-1.4210854715202004e-14,2.4020022082460457e-13
1064059989,53,1060000000,world,base_link,4.263256414560601e-14,-1.5987211554602254e-14,1.5179871248882648e-13
1098308491,54,1080000000,world,base_link,0.007949571195364769,0.006458668484914831,-5.487010151794536e-11
1157649454,55,1100000000,world,base_link,0.019633159115727494,0.01595056681273732,-5.4908900343209055e-11
1157696965,56,1120000000,world,base_link,0.031322039821493064,0.025447004331178746,-5.490900095717066e-11
1157705081,57,1140000000,world,base_link,0.0430109312408824,0.034943439360190176,-5.490900095717066e-11
1157866798,58,1160000000,world,base_link,0.05469983838984405,0.044439855276800166,-5.490910157113227e-11
1207695911,59,1180000000,world,base_link,0.06638876198666566,0.053936251197610474,-5.490910157113227e-11
1216272633,60,1200000000,world,base_link,0.0780777020826271,0.06343262706022124,-5.490910157113227e-11
1267652586,61,1220000000,world,base_link,0.08976665868155109,0.07292898285989668,-5.490919871564692e-11
1267686709,62,1240000000,world,base_link,0.10145563178393147,0.0824253185959618,-5.490929932960853e-11
1267710585,63,1260000000,world,base_link,0.11314462139004533,0.09192163426803646,-5.490929932960853e-11
1327614579,64,1280000000,world,base_link,0.12483362750013782,0.10141792987575737,-5.490929932960853e-11
1327636123,65,1300000000,world,base_link,0.13652265011443276,0.11091420541876396,-5.490929932960853e-11
1356687700,66,1320000000,world,base_link,0.14821168923319306,0.12041046089669472,-5.4909399943570136e-11
1356792955,67,1340000000,world,base_link,0.1599007448566674,0.1299066963091846,-5.4909399943570136e-11
1407655746,68,1360000000,world,base_link,0.17158981698506182,0.1394029116558766,-5.490950055753174e-11
1407706153,69,1380000000,world,base_link,0.18327890561865345,0.14889910693641006,-5.490950055753174e-11
1407734248,70,1400000000,world,base_link,0.19496801075767678,0.15839528215041998,-5.490950055753174e-11
1457540220,71,1420000000,world,base_link,0.20665713240237693,0.16789143729754485,-5.490960117149335e-11
1457566260,72,1440000000,world,base_link,0.21834627055298483,0.17738757237742586,-5.490960117149335e-11
1462928513,73,1460000000,world,base_link,0.23003542520974207,0.18688368738969885,-5.490960117149335e-11
1499399838,74,1480000000,world,base_link,0.24172459637289734,0.19637978233400588,-5.4909701785454956e-11
1547723593,75,1500000000,world,base_link,0.2534137840426993,0.20587585720998014,-5.4909701785454956e-11
1547859843,76,1520000000,world,base_link,0.2651029882193896,0.2153719120172628,-5.490979892996961e-11
1547897257,77,1540000000,world,base_link,0.27679220890320266,0.22486794675549415,-5.490979892996961e-11
1597671885,78,1560000000,world,base_link,0.28848144609438364,0.23436396142431093,-5.490989954393122e-11
1597710356,79,1580000000,world,base_link,0.3001706997931777,0.24385995602335164,-5.490989954393122e-11
1627490115,80,1600000000,world,base_link,0.3118599699998228,0.2533559305522557,-5.490989954393122e-11
1627528244,81,1620000000,world,base_link,0.3235492567145748,0.2628518850106598,-5.490989954393122e-11
1667743215,82,1640000000,world,base_link,0.3352385599376717,0.2723478193982043,-5.4910000157892824e-11
1667831726,83,1660000000,world,base_link,0.34692787966935157,0.28184373371452676,-5.491010077185443e-11
1717763510,84,1680000000,world,base_link,0.3586172159098524,0.2913396279592657,-5.491010077185443e-11
1717824552,85,1700000000,world,base_link,0.37030656865943,0.3008355021320588,-5.491010077185443e-11
1767615111,86,1720000000,world,base_link,0.38199593791831177,0.31033135623254804,-5.491020138581604e-11
1767661249,87,1740000000,world,base_link,0.39368532368674636,0.31982719026036577,-5.491020138581604e-11
1767700775,88,1760000000,world,base_link,0.4053747259649789,0.32932300421515404,-5.491029853033069e-11
1827773820,89,1780000000,world,base_link,0.4170641447532546,0.33881879809655224,-5.491029853033069e-11
1827804278,90,1800000000,world,base_link,0.4287535800518114,0.3483145719041989,-5.491029853033069e-11
1848590538,91,1820000000,world,base_link,0.4404430318609016,0.35781032563772985,-5.49103991442923e-11
1849032398,92,1840000000,world,base_link,0.4522966468333962,0.367104806905056,-5.503830030617607e-11
1897802496,93,1860000000,world,base_link,0.4641300883723467,0.37641814753872804,-5.536639896552842e-11
1897865081,94,1880000000,world,base_link,0.4760648118370945,0.3856020727014178,-5.568940100730835e-11
1947625292,95,1900000000,world,base_link,0.48813358928041595,0.39461198024605526,-5.600870114919054e-11
1947661072,96,1920000000,world,base_link,0.5003364159777917,0.4034428789501314,-5.6324001018737135e-11
1947742125,97,1940000000,world,base_link,0.5126709443373407,0.41209268350637185,-5.663080074325144e-11
1997605567,98,1960000000,world,base_link,0.5251346401425785,0.42055954890129676,-5.692920093669507e-11
1997649268,99,1980000000,world,base_link,0.5377249325936795,0.4288416805033757,-5.7219399357544276e-11
2007177685,100,2000000000,world,base_link,0.5504392251733776,0.43693732084463743,-5.7501201716769756e-11
2046363968,101,2020000000,world,base_link,0.5632748968714623,0.4448447490008922,-5.7774798833953867e-11
2097785194,102,2040000000,world,base_link,0.576229302746011,0.45256228086388184,-5.8040100503475855e-11
2097799431,103,2060000000,world,base_link,0.5892997744431447,0.4600882694703641,-5.829720040040343e-11
2097813217,104,2080000000,world,base_link,0.6024836207181963,0.46742110532861325,-5.85495991967111e-11
2147696163,105,2100000000,world,base_link,0.6157781279614483,0.4745592167377133,-5.879510073247829e-11
2147732292,106,2120000000,world,base_link,0.6291792494161861,0.4815022962249387,-7.26654899446677e-10
2162615338,107,2140000000,world,base_link,0.6426776680032553,0.4883072480264934,2.3277796686003993e-06
2163093906,108,2160000000,world,base_link,0.6562838235026227,0.49490646286191176,3.3144927982786676e-09
2207587180,109,2180000000,world,base_link,0.6698963042208597,0.5014735380524593,-1.542478985996909e-07
2207610277,110,2200000000,world,base_link,0.6835826522885995,0.5078474063703329,8.993896599696072e-09
2257665817,111,2220000000,world,base_link,0.6973293238278551,0.5141283535199745,-4.142993852800786e-06
2257719558,112,2240000000,world,base_link,0.7110706590944673,0.5204039476254199,-6.895339854651183e-11
2307665611,113,2260000000,world,base_link,0.7248169887057188,0.5266816208859728,-6.894240039967414e-11
2307690608,114,2280000000,world,base_link,0.7385632315532291,0.5329589556895717,-6.894320184192004e-11
2357705315,115,2300000000,world,base_link,0.752309517144301,0.5392362013566672,-6.894320184192004e-11
2357731102,116,2320000000,world,base_link,0.7660558414650573,0.5455133666415346,-6.89432989864347e-11
2357780935,117,2340000000,world,base_link,0.7798022042220047,0.5517904521524404,-6.89432989864347e-11
2407572904,118,2360000000,world,base_link,0.7935486053945517,0.5580674579309548,-6.89433996003963e-11
2407599465,119,2380000000,world,base_link,0.8072950449814194,0.5643443839786384,-6.89433996003963e-11
2407612204,120,2400000000,world,base_link,0.8210415229826644,0.5706212302942317,-6.89433996003963e-11
2467590839,121,2420000000,world,base_link,0.8347880393984433,0.5768979968762791,-6.894350021435791e-11
2467613389,122,2440000000,world,base_link,0.8485345942289229,0.5831746837233052,-6.894350021435791e-11
2467637961,123,2460000000,world,base_link,0.8622811874742808,0.5894512908338383,-6.894360082831952e-11
2517662463,124,2480000000,world,base_link,0.87602781913467,0.5957278182064041,-6.894360082831952e-11
2517689317,125,2500000000,world,base_link,0.8897744892102608,0.6020042658395308,-6.894370144228112e-11
2533704674,126,2520000000,world,base_link,0.9036224371574733,0.6080687169637997,-6.897240070746768e-11
2563187690,127,2540000000,world,base_link,0.9174491864902947,0.6141745625182322,-1.2953134100046615e-08
2617594558,128,2560000000,world,base_link,0.9313418239917155,0.6201637195289109,-5.884656997801052e-10
2617621018,129,2580000000,world,base_link,0.9453148572046679,0.6260932503607703,-2.575832998008565e-07
2617632305,130,2600000000,world,base_link,0.9593823114264133,0.6318329010568409,-6.873666927999927e-06
2677683615,131,2620000000,world,base_link,0.9735116566624562,0.6373087222932696,-5.3466274862017105e-06
2677723246,132,2640000000,world,base_link,0.9877143676389082,0.6425722195985752,-8.24872056490178e-06
2677749750,133,2660000000,world,base_link,1.0019812953068303,0.6476315590533916,-7.098002012539961e-10
2727548627,134,2680000000,world,base_link,1.0163393489190504,0.6525253634188317,-6.532590378600239e-06
2727562639,135,2700000000,world,base_link,1.0307107955981962,0.6572606743821234,7.178191311098953e-06
2727572573,136,2720000000,world,base_link,1.0451538153679962,0.6618260987012778,6.477882754700459e-06
2777731636,137,2740000000,world,base_link,1.0596801936434623,0.666248953799955,-4.076926546098952e-06
2777765992,138,2760000000,world,base_link,1.074291851231017,0.6704122320223735,-7.2795489641994116e-06
2801429733,139,2780000000,world,base_link,1.0888882207637742,0.6745523139128649,-4.687041691899679e-06
2801456976,140,2800000000,world,base_link,1.1035543472485756,0.6784424649951326,-5.742113257101167e-06
2857570062,141,2820000000,world,base_link,1.1182458127524058,0.6822817006170512,-1.1431584392013194e-06
2857590030,142,2840000000,world,base_link,1.1329293090406516,0.6861093128164883,-6.016669644400008e-06
2917676166,143,2860000000,world,base_link,1.1476255858792648,0.6899330953979987,-2.831921309953689e-08
2917713989,144,2880000000,world,base_link,1.162309793514705,0.6937564732795805,1.345126648989725e-07
2917767230,145,2900000000,world,base_link,1.1770088009874478,0.6975919127450183,6.404184340128016e-08
2977543736,146,2920000000,world,base_link,1.191692658583797,0.7014126360098638,2.9311173700002913e-08
2977581093,147,2940000000,world,base_link,1.2063897832083654,0.7052467882020732,-1.6702533599255442e-08
2977598957,148,2960000000,world,base_link,1.221073930494601,0.7090671164189573,3.014393490027856e-08
2977606274,149,2980000000,world,base_link,1.2357840317804971,0.712902003998451,-8.062573022400016e-06
3037663027,150,3000000000,world,base_link,1.2504628018380401,0.7167279015294579,-5.9038434142011376e-06
3037698020,151,3020000000,world,base_link,1.26515536080246,0.7205538423349713,-2.096099344900404e-06
3062676377,152,3040000000,world,base_link,1.2798436740115342,0.7243777206808453,-4.080835740098709e-06
3062718012,153,3060000000,world,base_link,1.2945369878764268,0.7282098980518512,-3.6823687152992557e-06
3107714361,154,3080000000,world,base_link,1.3092252893039529,0.7320309879682636,-4.041757954899999e-06
3107761611,155,3100000000,world,base_link,1.3239217674681498,0.7358559987907434,6.234084609993418e-08
3167660049,156,3120000000,world,base_link,1.3386096695073135,0.7396781718454477,3.013717329858334e-08
3167721545,157,3140000000,world,base_link,1.3533030500467547,0.7435098834395273,1.2936999160134688e-07
3167739778,158,3160000000,world,base_link,1.3679923864125776,0.7473298246164992,3.006100749922136e-08
3217593467,159,3180000000,world,base_link,1.3826841951810174,0.7511615562539857,1.2762303399846409e-07
3217619069,160,3200000000,world,base_link,1.3973744160884465,0.7549812955650426,3.0129408898349475e-08
3219178998,161,3220000000,world,base_link,1.412149384994212,0.7586129343028718,-1.4804500356006833e-06
3253253672,162,3240000000,world,base_link,1.4269016508438668,0.7622433652853919,-1.713802988412283e-10
3307600532,163,3260000000,world,base_link,1.4416987871821654,0.7656644071568772,-1.7274049898818866e-10
3307622008,164,3280000000,world,base_link,1.4565441895143962,0.7690239557609697,2.997241430047204e-08
3367629907,165,3300000000,world,base_link,1.4714401420029652,0.7720892039542608,3.5117035009080144e-09
3367663350,166,3320000000,world,base_link,1.486377080159933,0.7749544238579693,-5.089110001466057e-10
3367696208,167,3340000000,world,base_link,1.5013582878467737,0.7776118297391941,-4.687219015697686e-10
3367734992,168,3360000000,world,base_link,1.5163356554660403,0.7802843924493859,4.5228428988131064e-09
3417615458,169,3380000000,world,base_link,1.5313651861096247,0.782691354376368,3.009149259977639e-08
3417687243,170,3400000000,world,base_link,1.5464093315885599,0.7850471126323582,3.014302740050878e-08
3446530949,171,3420000000,world,base_link,1.5614527796613515,0.7873989193324071,3.0624694998676594e-08
3446558462,172,3440000000,world,base_link,1.5764988759041252,0.7897509955518691,3.003929609918243e-08
3497714806,173,3460000000,world,base_link,1.5915431962373425,0.7921041278752039,3.0146312699624866e-08
3497740450,174,3480000000,world,base_link,1.6065878849211401,0.794454876160323,6.207887020062697e-08
3547620801,175,3500000000,world,base_link,1.6216335294131206,0.7968078399992145,1.7617719910018037e-07
3547635935,176,3520000000,world,base_link,1.6366776390664874,0.7991552236675501,3.009443340015738e-08
3548294073,177,3540000000,world,base_link,1.651721959146471,0.8015050253314717,2.9147782298899472e-08
3607721542,178,3560000000,world,base_link,1.6667683152628108,0.8038547427538196,2.9208792898249847e-08
3607784670,179,3580000000,world,base_link,1.6818124786652895,0.8062038612840565,3.009241409876462e-08
3607828220,180,3600000000,world,base_link,1.6968573349390752,0.8085518724042595,3.015219809943126e-08
3667609485,181,3620000000,world,base_link,1.7119024263691216,0.8109005544222612,6.208126819909343e-08
3667636900,182,3640000000,world,base_link,1.7269484720291075,0.8132514277462342,1.7621100530107459e-07
3669558229,183,3660000000,world,base_link,1.741992984848089,0.8155967152901802,3.0094463299851215e-08
3676564381,184,3680000000,world,base_link,1.7570377076720831,0.8179444227798651,2.914772819981315e-08
3717727475,185,3700000000,world,base_link,1.772084465752247,0.8202920457155995,2.920840819903292e-08
3767723212,186,3720000000,world,base_link,1.7871290311369101,0.822639067721517,3.00924406990144e-08
3767770403,187,3740000000,world,base_link,1.8021742905587068,0.82498498485712,3.015220549976161e-08
3817574993,188,3760000000,world,base_link,1.8172197840747977,0.827331573289892,6.2081250699203e-08
3817606113,189,3780000000,world,base_link,1.8322662298603767,0.8296803483554109,1.771597030984784e-07
3817652645,190,3800000000,world,base_link,1.8473111469681776,0.8320235437516503,3.009449249871676e-08
3817664400,191,3820000000,world,base_link,1.8623562719323523,0.8343691580004711,2.9147673798884943e-08
3867792694,192,3840000000,world,base_link,1.8774034315278065,0.8367146872107387,2.9208023100829594e-08
3881506430,193,3860000000,world,base_link,1.89244839846031,0.8390596134566328,3.009246739987814e-08
3937972358,194,3880000000,world,base_link,1.907494060593855,0.8414034373698946,3.015221290009196e-08
3938028435,195,3900000000,world,base_link,1.9225399557609677,0.8437479329781379,6.208123299808466e-08
3938158779,196,3920000000,world,base_link,1.9375868012375719,0.8460946105481915,1.7810794220030068e-07
3987645757,197,3940000000,world,base_link,1.9526321221976701,0.8484357145566026,3.009452179819627e-08
3987687047,198,3960000000,world,base_link,1.9676776488671806,0.8507792363249225,2.914761959918466e-08
4002168661,199,3980000000,world,base_link,1.9827252095433785,0.8531226725703664,2.920763789854286e-08
4002201173,200,4000000000,world,base_link,1.9977705775884864,0.8554655038179453,3.009249400012792e-08
4057942879,201,4020000000,world,base_link,2.012816641999727,0.8578072352721522,3.015222009919438e-08
4057993394,202,4040000000,world,base_link,2.027862938387969,0.8601496388253729,6.208121530043575e-08
4107752112,203,4060000000,world,base_link,2.042910183121805,0.8624942196631089,1.7905572129855996e-07
4107783542,204,4080000000,world,base_link,2.057955907506379,0.8648332330601196,3.0094551000531267e-08
4107861101,205,4100000000,world,base_link,2.073001835458207,0.8671746631318547,2.9147565399484376e-08
4167551741,206,4120000000,world,base_link,2.0880497967919744,0.8695160071961103,2.920725299809801e-08
4167578147,207,4140000000,world,base_link,2.1030955655188883,0.8718567442158403,3.0092520700991665e-08
4171186524,208,4160000000,world,base_link,2.1181420317880644,0.8741963840040929,3.015222749952473e-08
4176259926,209,4180000000,world,base_link,2.1331887289743285,0.876536696287455,6.20811975993174e-08
4227595834,210,4200000000,world,base_link,2.148236372531901,0.8788791811584966,1.8000309399968106e-07
4287863395,211,4220000000,world,base_link,2.163282499913688,0.8812161047237073,3.009458009878285e-08
4287928713,212,4240000000,world,base_link,2.178328828718456,0.8835554438721269,2.9147511300398055e-08
4287943569,213,4260000000,world,base_link,2.1933771902769372,0.8858946965210821,2.9206868000508646e-08
4287980983,214,4280000000,world,base_link,2.2084233592511673,0.8882333400780409,3.0092547200627484e-08
4347623710,215,4300000000,world,base_link,2.223470226942993,0.8905708889630786,3.0152234698627156e-08
4347650453,216,4320000000,world,base_link,2.2385173244929994,0.8929091107391098,6.208117970044058e-08
4347998178,217,4340000000,world,base_link,2.253565366440405,0.8952495004083545,1.8095000400147887e-07
4362769984,218,4360000000,world,base_link,2.268611896383515,0.8975843349035086,3.009460930111785e-08
4417664957,219,4380000000,world,base_link,2.283658625607025,0.8999215838908539,2.9147457201311733e-08
4417703987,220,4400000000,world,base_link,2.298707386956327,0.902258745887007,2.9206482898835873e-08
4467606758,221,4420000000,world,base_link,2.3137539557433264,0.9045952967447661,3.00925737002633e-08
4467629051,222,4440000000,world,base_link,2.328801224422932,0.9069307554887365,3.015224190119903e-08
4467661009,223,4460000000,world,base_link,2.343848721902951,0.9092668875193501,6.208116149972187e-08
4517659940,224,4480000000,world,base_link,2.3588971618068477,0.9116051827512051,1.8189641510027443e-07
4517688223,225,4500000000,world,base_link,2.373944093875785,0.9139379289373597,3.009463839936943e-08
4539966496,226,4520000000,world,base_link,2.3889912230843677,0.9162730885252,2.9147403299983887e-08
4540005962,227,4540000000,world,base_link,2.4040403837911484,0.9186081606304288,2.9206097800632547e-08
4598004201,228,4560000000,world,base_link,2.419087351956822,0.9209426195520001,3.0092600300513084e-08
4598046582,229,4580000000,world,base_link,2.4341350211898245,0.9232759889164948,3.015224899968749e-08
4647562397,230,4600000000,world,base_link,2.449182918166553,0.9256100319630907,6.20811431983892e-08
4647620049,231,4620000000,world,base_link,2.4642317555939677,0.9279462335214532,1.8284235089871537e-07
4647634144,232,4640000000,world,base_link,2.4792790893536782,0.9302768921592826,3.009466759823498e-08
4707780541,233,4660000000,world,base_link,2.4943266181139983,0.9326099631088365,2.9147349499270003e-08
4707808234,234,4680000000,world,base_link,2.509376177745235,0.9349429460846492,2.9205712698959774e-08
4707827624,235,4700000000,world,base_link,2.524423544855864,0.93727531383262,3.00926268001489e-08
4757720748,236,4720000000,world,base_link,2.539471614208285,0.9396065945788372,3.0152256098175956e-08
4757743011,237,4740000000,world,base_link,2.554519910248789,0.941938549402412,6.208112479991201e-08
4762270492,238,4760000000,world,base_link,2.569569144767101,0.9442726580506937,1.837878204000165e-07
4776154425,239,4780000000,world,base_link,2.584616879783006,0.9466012299004376,3.0094696699956014e-08
4817618741,240,4800000000,world,base_link,2.599664807662169,0.9489322129724522,2.914729579917008e-08
4877754403,241,4820000000,world,base_link,2.614714765785287,0.9512631075798756,2.9205327399528525e-08
4877784998,242,4840000000,world,base_link,2.6297625314076107,0.9535933849163447,3.009265329978472e-08
4937906035,243,4860000000,world,base_link,2.6448110004458663,0.955922577805012,3.0152263200133866e-08
4937954387,244,4880000000,world,base_link,2.6598596951176567,0.9582524451660923,6.208110609959294e-08
4937972862,245,4900000000,world,base_link,2.6749093262946957,0.9605844616672261,1.8473282389908086e-07
4938012357,246,4920000000,world,base_link,2.6899574621326288,0.9629109474886519,3.00947257982076e-08
4987717595,247,4940000000,world,base_link,2.705005788698166,0.9652398434434089,2.914724209907016e-08
4987770565,248,4960000000,world,base_link,2.720056144880985,0.9675686504430061,2.9204942100097275e-08
4987840205,249,4980000000,world,base_link,2.735104308582155,0.9698968381296025,3.009267969880658e-08
5016600935,250,5000000000,world,base_link,2.750153176873134,0.9722239439209535,3.0152270201477815e-08
5067710515,251,5020000000,world,base_link,2.765202269744165,0.9745517245795225,6.208108739927387e-08
5067745101,252,5040000000,world,base_link,2.7802522971483192,0.9768816496959705,1.8567733659977104e-07
5067815240,253,5060000000,world,base_link,2.795300833374519,0.9792060502482238,3.009475489992863e-08
5117621660,254,5080000000,world,base_link,2.810349558194499,0.9815328598453501,2.9147188298356275e-08
5117646528,255,5100000000,world,base_link,2.8254003120054563,0.9838595799969791,2.9204556800666026e-08
5128382241,256,5120000000,world,base_link,2.840448873353157,0.9861856787947199,3.0092706101297884e-08
5137638237,257,5140000000,world,base_link,2.855498140464217,0.9885106982483061,3.015227719935232e-08
5197658063,258,5160000000,world,base_link,2.8705476311029763,0.9908363929637103,6.208106850119632e-08
5257563870,259,5180000000,world,base_link,2.885598054303067,0.9931642274573775,1.8662135629898824e-07
5257576143,260,5200000000,world,base_link,2.9006469904841943,0.9954865434990641,3.009478399818022e-08
5257580261,261,5220000000,world,base_link,2.91569611312703,0.9978112674977364,2.9147134698870314e-08
5257584549,262,5240000000,world,base_link,2.930747264134851,1.0001359015608955,2.9204171300006854e-08
5307569501,263,5260000000,world,base_link,2.9457962226970906,1.0024599122303632,3.00927326009337e-08
5307595897,264,5280000000,world,base_link,2.9608458881959585,1.0047828461053978,3.0152283999468343e-08
5307609653,265,5300000000,world,base_link,2.9758957761712246,1.007106455636647,6.20810493984214e-08
5346814486,266,5320000000,world,base_link,2.9909465947363785,1.0094322002689493,1.8756491250090934e-07
5347271178,267,5340000000,world,base_link,3.0059959304395676,1.0117524325583274,3.009481299928729e-08
5397759456,268,5360000000,world,base_link,3.021045450474112,1.0140750717173201,2.914708099877039e-08
5397794628,269,5380000000,world,base_link,3.036096997991148,1.016397618528126,2.9203738500377385e-08
5447637763,270,5400000000,world,base_link,3.051146353649248,1.0187195413746757,3.009275899995556e-08
5447665225,271,5420000000,world,base_link,3.066196417399098,1.0210403797163332,3.015229090019833e-08
5447688746,272,5440000000,world,base_link,3.081246702260035,1.0233618858555307,6.208102579924324e-08
5507634129,273,5460000000,world,base_link,3.0962979162391484,1.0256855405641723,1.885481861994831e-07
5507668324,274,5480000000,world,base_link,3.1113476520550307,1.0280036611876149,3.009484200039436e-08
5507713741,275,5500000000,world,base_link,3.1263975701051763,1.0303241780399555,2.914702739928443e-08
5557599337,276,5520000000,world,base_link,3.141449509819047,1.0326446039667276,2.9202507398351507e-08
5557629801,277,5540000000,world,base_link,3.1564992681234756,1.034964428421664,3.009278560020534e-08
5562321736,278,5560000000,world,base_link,3.1715497314514316,1.0372831348900489,3.015229789807283e-08
5599574684,279,5580000000,world,base_link,3.186600413457846,1.0396025116300587,6.208098739940437e-08
5647733446,280,5600000000,world,base_link,3.201652024126833,1.0419240700480463,1.895724258994813e-07
5647766088,281,5620000000,world,base_link,3.2167021596718186,1.0442400695677376,3.009487119925991e-08
5647852660,282,5640000000,world,base_link,3.2317524740123673,1.0465584729388961,2.914697330019811e-08
5697774853,283,5660000000,world,base_link,3.2468048089015973,1.0488767962312018,2.9201864298195046e-08
5697830600,284,5680000000,world,base_link,3.2618549649098725,1.0511945218291796,3.0092811898613236e-08
5713259181,285,5700000000,world,base_link,3.276905822829736,1.0535111330937728,3.015230489941678e-08
5747563274,286,5720000000,world,base_link,3.2919568987177286,1.055828422778439,6.208100889956714e-08
5787616305,287,5740000000,world,base_link,3.3070089055468266,1.0581478826854944,1.9026443569963858e-07
5787649659,288,5760000000,world,base_link,3.322059435429207,1.0604617963639544,3.009490099833978e-08
5787674817,289,5780000000,world,base_link,3.337110142965443,1.0627781137912544,2.9146920398070986e-08
5837708282,290,5800000000,world,base_link,3.352162873863609,1.0650943493504563,2.920155380004008e-08
5837756910,291,5820000000,world,base_link,3.367213423700587,1.0674099819222587,3.009283779803473e-08
5862716591,292,5840000000,world,base_link,3.3822646747371223,1.0697245080400952,3.015231140116037e-08
5862848334,293,5860000000,world,base_link,3.3973161440472452,1.0720397116666822,6.208103290120115e-08
5917752539,294,5880000000,world,base_link,3.412368545651457,1.0743570771749749,1.9110649709941363e-07
5917812626,295,5900000000,world,base_link,3.427419469889447,1.07666890563715,3.009493010006081e-08
5977652302,296,5920000000,world,base_link,3.442470569977381,1.0789831359200566,2.9146867298185386e-08
5977685171,297,5940000000,world,base_link,3.4575236934040277,1.081297281955922,2.9201135898215824e-08
5977706546,298,5960000000,world,base_link,3.4725746379659626,1.0836108251089964,3.00928647001264e-08
6037544441,299,5980000000,world,base_link,3.4876262820458237,1.085923262672953,3.015231789943451e-08
6037580788,300,6000000000,world,base_link,3.5026781421993327,1.0882363784900662,6.208092979964608e-08
6037620694,301,6020000000,world,base_link,3.517730936403346,1.0905516521953977,1.9248568600138682e-07
6037631820,302,6040000000,world,base_link,3.5327822556842428,1.0928613956047384,3.009495790073924e-08
6097620010,303,6060000000,world,base_link,3.5478337478386877,1.0951735402076013,2.9146812800112665e-08
6098263520,304,6080000000,world,base_link,3.562887263625054,1.097485599957559,2.9200740898210897e-08
6147702879,305,6100000000,world,base_link,3.5779386030408524,1.0997970554602094,3.009289159874862e-08
6147740982,306,6120000000,world,base_link,3.5929906420350477,1.1021074088627234,3.015232469955054e-08
6147767442,307,6140000000,world,base_link,3.6080428961039104,1.1044184417247536,6.208084700129457e-08
6207732983,308,6160000000,world,base_link,3.6230960831363532,1.1067316251538175,1.9369261630014512e-07
6207772530,309,6180000000,world,base_link,3.6381478001681344,1.109039287912477,3.009498629816254e-08
6213462810,310,6200000000,world,base_link,3.653199686966982,1.1113493505897418,2.914675889878482e-08
6247429165,311,6220000000,world,base_link,3.668253596589487,1.1136593270981834,2.920039759990445e-08
6287565482,312,6240000000,world,base_link,3.6833053308107395,1.1159686965200102,3.00929181989984e-08
6287597772,313,6260000000,world,base_link,3.6983577655486606,1.118276967847014,3.015233149966656e-08
6287606385,314,6280000000,world,base_link,3.7134104139133832,1.1205859186654816,6.208078399960737e-08
6337644989,315,6300000000,world,base_link,3.7284639934641746,1.122897013619263,1.948210633997971e-07
6337665027,316,6320000000,world,base_link,3.743516108048489,1.1252025957586316,3.009501479966925e-08
6358227859,317,6340000000,world,base_link,3.758568389757798,1.127510576106455,2.914670529929886e-08
6358264328,318,6360000000,world,base_link,3.7736226934137527,1.12981846919938,2.920001839976094e-08
6407567201,319,6380000000,world,base_link,3.788674822353247,1.1321257532117786,3.0092944698634216e-08
6407590265,320,6400000000,world,base_link,3.8037276530118547,1.1344319417272875,3.0152338098554665e-08
6457943044,321,6420000000,world,base_link,3.818780695885831,1.1367388100982394,6.20807397988532e-08
6458003615,322,6440000000,world,base_link,3.833834667755177,1.1390478175724175,1.958788908990039e-07
6507673521,323,6460000000,world,base_link,3.848887179634179,1.141351318875114,3.009504349893444e-08
6507714832,324,6480000000,world,base_link,3.863939856108736,1.1436572170653188,2.914665190104082e-08
6507768575,325,6500000000,world,base_link,3.878994553598833,1.1459630272700503,2.9199633998916452e-08
6557660437,326,6520000000,world,base_link,3.894047076873985,1.1482682264099768,3.009297110112552e-08
6557707683,327,6540000000,world,base_link,3.9091003032135383,1.1505723323535149,3.015234479805673e-08
6562210061,328,6560000000,world,base_link,3.9241537405868243,1.1528771183631275,6.208070749830208e-08
6576324556,329,6580000000,world,base_link,3.9392081046380554,1.1551840389826884,1.9685640460093135e-07
6617658580,330,6600000000,world,base_link,3.95426101355471,1.1574854591506316,3.009507239942755e-08
6667588809,331,6620000000,world,base_link,3.9693140848558883,1.1597892749449095,2.914659880115522e-08
6667648779,332,6640000000,world,base_link,3.984369176245675,1.1620930023655598,2.9199241500382778e-08
6667673416,333,6660000000,world,base_link,3.9994220935202023,1.1643961168917665,3.0092997298919455e-08
6717795854,334,6680000000,world,base_link,4.014475715302524,1.1666981403457362,3.0152351199186356e-08
6717855493,335,6700000000,world,base_link,4.029529546990556,1.1690008442415172,6.208068540139444e-08
6730087441,336,6720000000,world,base_link,4.044584302930534,1.1713056785459335,1.9780432740021392e-07
6738622708,337,6740000000,world,base_link,4.059650667093386,1.1735372329894371,3.038230519947227e-08
6787530352,338,6760000000,world,base_link,4.074751965462767,1.1756495043599724,-1.282927935400413e-06
6837682974,339,6780000000,world,base_link,4.089847341051556,1.1778386854743523,-2.3448181632017284e-06
6837717154,340,6800000000,world,base_link,4.10497828665563,1.1797654446542287,-2.3274642200997453e-06
6887630547,341,6820000000,world,base_link,4.120138605624369,1.1814815279963815,-2.3029365052995576e-06
6887662800,342,6840000000,world,base_link,4.135328311464548,1.1829751430289583,-2.2780510051008396e-06
6887680704,343,6860000000,world,base_link,4.150543563397267,1.1843387630740008,-2.2467700285001835e-06
6887694961,344,6880000000,world,base_link,4.165782066324304,1.1856375021256387,-2.2169396484000847e-06
6947660248,345,6900000000,world,base_link,4.1810408405497945,1.1868734587348122,-2.4467022879011424e-06
6947718554,346,6920000000,world,base_link,4.196316399221676,1.188062748429104,-2.754644862601463e-06
6966605567,347,6940000000,world,base_link,4.211601341532326,1.1892237386904823,1.4798728120019033e-07
6966649233,348,6960000000,world,base_link,4.226903137839127,1.1902924115112308,-1.3387215961994936e-06
7017627740,349,6980000000,world,base_link,4.242206001834248,1.1913285320766045,-2.7740847001467284e-08
7017662287,350,7000000000,world,base_link,4.257514404356169,1.1923029927290933,-1.823434889886011e-08
7077758279,351,7020000000,world,base_link,4.2728283845959965,1.1931450645093369,-1.6804456801772227e-08
7077797318,352,7040000000,world,base_link,4.288146418054957,1.1938475231787686,-1.536963980044992e-08
7077837955,353,7060000000,world,base_link,4.303467241463299,1.19441117295316,-1.3900620599027746e-08
7127758248,354,7080000000,world,base_link,4.318789624708895,1.1948361298713701,-1.2392737100408446e-08
7127811485,355,7100000000,world,base_link,4.334112340931288,1.1951223691617674,-1.087122249859851e-08
7131642285,356,7120000000,world,base_link,4.3494341655470485,1.1952697222577005,-9.273700501966076e-09
7137210337,357,7140000000,world,base_link,4.364753881865347,1.1952786752874998,-7.621915598665652e-09
7187664517,358,7160000000,world,base_link,4.380070273550427,1.1951493859094278,-5.918437000901333e-09
7247745879,359,7180000000,world,base_link,4.3953821265170205,1.1948819540115254,-4.1628226005174795e-09
7247793801,360,7200000000,world,base_link,4.410688228697598,1.1944764819984215,-2.361793000754675e-09
7247820081,361,7220000000,world,base_link,4.425987370220792,1.1939330790688611,-5.143648007521762e-10
7297741835,362,7240000000,world,base_link,4.441278342776741,1.1932518599160327,-6.558300083558954e-11
7297795790,363,7260000000,world,base_link,4.456559950187167,1.192432939165852,-6.551599887605342e-11
7312755753,364,7280000000,world,base_link,4.471830990857864,1.1914764442538157,-6.544350131254539e-11
7312799683,365,7300000000,world,base_link,4.4870948968511115,1.1904315788217348,-5.7827201360716174e-11
7367730326,366,7320000000,world,base_link,4.502364009550391,1.189647978275091,-3.0520599936245674e-11
7367798520,367,7340000000,world,base_link,4.5176253256208945,1.1887999259703523,-3.052580063722665e-11
7367831516,368,7360000000,world,base_link,4.532885186046887,1.1879480957667568,-3.052439898065806e-11
7417736815,369,7380000000,world,base_link,4.548145026410776,1.1870960658621437,-3.0523798766335375e-11
7417790369,370,7400000000,world,base_link,4.563404880487692,1.1862441796803846,-3.052310140749803e-11
7422421251,371,7420000000,world,base_link,4.578664750602137,1.185392461594411,-3.0522501193175344e-11
7436728918,372,7440000000,world,base_link,4.593924636916814,1.1845409133286635,-3.052180036489105e-11
7477609481,373,7460000000,world,base_link,4.609184539441738,1.1836895350071792,-3.0521099536606755e-11
7527601159,374,7480000000,world,base_link,4.624444458176129,1.18283832664092,-3.052049932228407e-11
7527621910,375,7500000000,world,base_link,4.6397043931184285,1.181987288232861,-3.0519801963446724e-11
7577562522,376,7520000000,world,base_link,4.654964344267032,1.1811364197854166,-3.0519201749124036e-11
7577586006,377,7540000000,world,base_link,4.670224311620352,1.180285721300958,-3.051850092083974e-11
7577599182,378,7560000000,world,base_link,4.685484295176778,1.1794351927818552,-3.051780009255545e-11
7577609301,379,7580000000,world,base_link,4.700744294934694,1.1785848342304757,-3.051719987823276e-11
7627671277,380,7600000000,world,base_link,4.716004310892522,1.1777346456491902,-3.0516499049948465e-11
7644915062,381,7620000000,world,base_link,4.731264343048636,1.1768846270403666,-3.0515898835625777e-11
7687729474,382,7640000000,world,base_link,4.746524391401433,1.1760347784063745,-3.0515201476788434e-11
7687751746,383,7660000000,world,base_link,4.761784455949318,1.1751850997495827,-3.051450064850414e-11
7687772257,384,7680000000,world,base_link,4.777044536690671,1.17433559107236,-3.051390043418145e-11
7737573535,385,7700000000,world,base_link,4.792304633623907,1.1734862523770762,-3.0513199605897157e-11
7748748606,386,7720000000,world,base_link,4.807564746747406,1.1726370836660989,-3.051259939157447e-11
7797535929,387,7740000000,world,base_link,4.822824876059567,1.171788084941796,-3.0511898563290174e-11
7797559155,388,7760000000,world,base_link,4.838085021558779,1.1709392562065402,-3.051120120445283e-11
7797567441,389,7780000000,world,base_link,4.853345183243437,1.1700905974627007,-3.0510600990130143e-11
7857573548,390,7800000000,world,base_link,4.868605361111953,1.1692421087126448,-3.050990016184585e-11
7857607063,391,7820000000,world,base_link,4.8838655551627035,1.1683937899587402,-3.050929994752316e-11
7857623230,392,7840000000,world,base_link,4.899125765394093,1.1675456412033522,-3.0508599119238866e-11
7917610323,393,7860000000,world,base_link,4.914385991804519,1.1666976624488568,-3.0507901760401523e-11
7917645816,394,7880000000,world,base_link,4.929646234392369,1.1658498536976198,-3.0507301546078835e-11
7917668454,395,7900000000,world,base_link,4.944906493156047,1.1650022149520112,-3.050660071779454e-11
7967731123,396,7920000000,world,base_link,4.960166768093934,1.1641547462144013,-3.050600050347185e-11
7967776590,397,7940000000,world,base_link,4.975427059204431,1.1633074474871608,-3.050529967518756e-11
7967845576,398,7960000000,world,base_link,4.990687366485936,1.1624603187726548,-3.050469946086487e-11
8017639393,399,7980000000,world,base_link,5.005947689936843,1.161613360073252,-3.0503998632580576e-11
8017670548,400,8000000000,world,base_link,5.0212080295555275,1.1607665713913207,-3.050330127374323e-11
8044640157,401,8020000000,world,base_link,5.036468385340406,1.15991995272923,-3.0502701059420545e-11
8044664694,402,8040000000,world,base_link,5.051728757289869,1.1590735040893518,-3.050200023113625e-11
8097621943,403,8060000000,world,base_link,5.066989145402292,1.1582272254740564,-3.0501299402851956e-11
8097644957,404,8080000000,world,base_link,5.082249549676089,1.1573811168857064,-3.050069918852927e-11
8147607864,405,8100000000,world,base_link,5.097509970109655,1.1565351783266742,-3.0500001829691925e-11
8147642216,406,8120000000,world,base_link,5.112770406701369,1.1556894097993302,-3.049940161536924e-11
8147674874,407,8140000000,world,base_link,5.128030859449616,1.1548438113060415,-3.049870078708494e-11
8207736527,408,8160000000,world,base_link,5.143291328352824,1.1539983828491769,-3.049799995880065e-11
8207787707,409,8180000000,world,base_link,5.1585518134093675,1.1531531244311068,-3.049739974447796e-11
8208370325,410,8200000000,world,base_link,5.173812314617642,1.1523080360541975,-3.049679953015527e-11
8235124467,411,8220000000,world,base_link,5.189072831976038,1.151463117720822,-3.049609870187098e-11
8277517589,412,8240000000,world,base_link,5.204333365482949,1.1506183694333467,-3.0495401343033635e-11
8277598434,413,8260000000,world,base_link,5.219573348010428,1.1493732011728488,3.4402594339955073e-07
8327583811,414,8280000000,world,base_link,5.234817741248449,1.1480003517352761,-1.8409902256995292e-06
8327614331,415,8300000000,world,base_link,5.2500571689762765,1.1465281138505832,-6.811200093000125e-07
8327633210,416,8320000000,world,base_link,5.265272777879769,1.1449161600252022,2.3704749749914322e-07
8377731860,417,8340000000,world,base_link,5.280471947780928,1.1431565200134663,-2.0153873655018306e-06
8377810626,418,8360000000,world,base_link,5.295658933605587,1.1412608227452266,-6.565648221004694e-07
8398249374,419,8380000000,world,base_link,5.3108173562248915,1.1392199247444115,3.0555920340138987e-07
8428230919,420,8400000000,world,base_link,5.32595511940627,1.1370279714923042,-2.1654579313995503e-06
8487634457,421,8420000000,world,base_link,5.341076224880808,1.1346984479391429,-5.553976554009687e-07
8487678380,422,8440000000,world,base_link,5.356165007980728,1.1322216021040203,3.514303073999525e-07
8487713838,423,8460000000,world,base_link,5.371226847764536,1.129635972750859,-7.00976100082018e-10
8487734791,424,8480000000,world,base_link,5.386254973707604,1.1269206710467907,-8.276443003163436e-10
8537550125,425,8500000000,world,base_link,5.401254633364985,1.124064867835843,-8.242737985220128e-10
8537570682,426,8520000000,world,base_link,5.416223020439848,1.1210863728590343,-8.210892001037084e-10
8562495438,427,8540000000,world,base_link,5.431161072414536,1.1179803012585188,-8.173610017980781e-10
8562533386,428,8560000000,world,base_link,5.446067520847645,1.1147363005243864,-8.136786001922136e-10
8617625288,429,8580000000,world,base_link,5.4609409115502565,1.1113536785124785,-8.100690986057035e-10
8617666712,430,8600000000,world,base_link,5.475779982880148,1.107832663146536,-8.065180988336973e-10
8617686910,431,8620000000,world,base_link,5.490643022673172,1.1046008084587529,-1.1945745018171472e-09
8667591366,432,8640000000,world,base_link,5.505462875990887,1.1012487608207069,-7.063220147651705e-11
8667605653,433,8660000000,world,base_link,5.520276402895412,1.0978757563376789,-6.365040092215501e-11
8710377287,434,8680000000,world,base_link,5.535089556431991,1.0945013240800359,-6.377949904323721e-11
8710403026,435,8700000000,world,base_link,5.549902715433422,1.0911269127458176,-6.372799857268241e-11
8767575025,436,8720000000,world,base_link,5.564715906643183,1.0877526247661997,-6.37801998715215e-11
8767604840,437,8740000000,world,base_link,5.579529131950366,1.0843784673794978,-6.37602991238051e-11
8767805005,438,8760000000,world,base_link,5.594342391487217,1.0810044410977717,-6.378050171340632e-11
8817671319,439,8780000000,world,base_link,5.609155685262774,1.0776305459594058,-6.377319852757246e-11
8817711210,440,8800000000,world,base_link,5.623969013272092,1.074256781976855,-6.401059890470684e-11
8830034452,441,8820000000,world,base_link,5.638782375529434,1.0708831491294992,-6.377800024215396e-11
8865621367,442,8840000000,world,base_link,5.653595772019045,1.067509647445421,-6.365569876765065e-11
8917660578,443,8860000000,world,base_link,5.668409202746204,1.0641362769102445,-6.377970027116042e-11
8917687920,444,8880000000,world,base_link,5.683222667709593,1.060763037535832,-6.372809918664402e-11
8917749561,445,8900000000,world,base_link,5.698036166908132,1.0573899293191156,-6.378040109944472e-11
8917759563,446,8920000000,world,base_link,5.712849700342076,1.0540169522646252,-6.376050035172831e-11
8967716820,447,8940000000,world,base_link,5.7276632680102715,1.0506441063735998,-6.378059885792098e-11
8967768276,448,8960000000,world,base_link,5.742476869912359,1.0472713916483523,-6.377329914153407e-11
8989178315,449,8980000000,world,base_link,5.757290506042704,1.04389880809879,-6.401110197451487e-11
9016551286,450,9000000000,world,base_link,5.7721041764155245,1.0405263557041113,-6.377810085611557e-11
9057556545,451,9020000000,world,base_link,5.786917881015068,1.0371540344923913,-6.365569876765065e-11
9057587709,452,9040000000,world,base_link,5.801731619846617,1.0337818444492468,-6.377990149908364e-11
9057599681,453,9060000000,world,base_link,5.816545392908839,1.0304097855865484,-6.372819980060562e-11
9117630011,454,9080000000,world,base_link,5.831359200200669,1.0270378579012212,-6.378050171340632e-11
9117662856,455,9100000000,world,base_link,5.846173041722366,1.0236660613977993,-6.376060096568992e-11
9128450565,456,9120000000,world,base_link,5.860986917472758,1.020294396077519,-6.378080008584419e-11
9163133118,457,9140000000,world,base_link,5.875800827451489,1.0169228619426969,-6.377339975549567e-11
9207680069,458,9160000000,world,base_link,5.890614771652935,1.0135514590032395,-6.401160157487595e-11
9207722963,459,9180000000,world,base_link,5.9054287500913105,1.0101801872383334,-6.377820147007718e-11
9207749677,460,9200000000,world,base_link,5.920242762749094,1.0068090466775743,-6.36629013395229e-11
9257848619,461,9220000000,world,base_link,5.935056809636844,1.0034380373020229,-6.377970027116042e-11
9257991231,462,9240000000,world,base_link,5.9498708907473805,1.0000671591303263,-6.365600060953547e-11
9277307358,463,9260000000,world,base_link,5.964685006083126,0.9966964121512891,-6.377999864359829e-11
9277378927,464,9280000000,world,base_link,5.9794991556426424,0.9933257963773645,-6.371619898359882e-11
9327651329,465,9300000000,world,base_link,5.994313339425233,0.9899553118036124,-6.378059885792098e-11
9327694912,466,9320000000,world,base_link,6.009127557430929,0.9865849584371329,-6.372840102852884e-11
9377741400,467,9340000000,world,base_link,6.0239418096582185,0.9832147362764854,-6.378069947188258e-11
9377775044,468,9360000000,world,base_link,6.0387560961074165,0.9798446453263177,-6.375569863714681e-11
9427610180,469,9380000000,world,base_link,6.053570416777138,0.9764746855874051,-6.37810013137674e-11
9427645683,470,9400000000,world,base_link,6.068384771667393,0.973104857062653,-6.376089933812779e-11
9477763035,471,9420000000,world,base_link,6.08319916077707,0.9697351597538697,-6.37810013137674e-11
9477819303,472,9440000000,world,base_link,6.09801358410596,0.966365593663431,-6.376089933812779e-11
9477841565,473,9460000000,world,base_link,6.1128280416530565,0.9629961587933549,-6.37810013137674e-11
9477860358,474,9480000000,world,base_link,6.127642533418122,0.9596268551459994,-6.376089933812779e-11
9527865868,475,9500000000,world,base_link,6.142457059400169,0.9562576827233782,-6.378110192772901e-11
9538825746,476,9520000000,world,base_link,6.157271619598941,0.9528886415278519,-6.376089933812779e-11
9597606208,477,9540000000,world,base_link,6.172086214013451,0.949519731561435,-6.378110192772901e-11
9597636230,478,9560000000,world,base_link,6.18690084264346,0.9461509528264873,-6.376099995208939e-11
9597671042,479,9580000000,world,base_link,6.201715505487972,0.9427823053250233,-6.378110192772901e-11
9647748975,480,9600000000,world,base_link,6.216530202546824,0.9394137890595466,-6.375589986507002e-11
9647807625,481,9620000000,world,base_link,6.2313449338187965,0.9360454040316091,-6.378110192772901e-11
9659212358,482,9640000000,world,base_link,6.246159699304016,0.9326771502447269,-6.37285987870051e-11
9659240775,483,9660000000,world,base_link,6.260974499000966,0.929309027698717,-6.37810013137674e-11
9707649596,484,9680000000,world,base_link,6.275789332909447,0.9259410364008236,-6.365629898197334e-11
9707691503,485,9700000000,world,base_link,6.290604201029552,0.9225731763437919,-6.378040109944472e-11
9757974970,486,9720000000,world,base_link,6.30541910335479,0.9192054475461378,-6.401299976199759e-11
9758015901,487,9740000000,world,base_link,6.320234039899606,0.9158378499843653,-6.377860045647665e-11
9817704025,488,9760000000,world,base_link,6.33504901064871,0.9124703836835026,-6.378129968620527e-11
9817741306,489,9780000000,world,base_link,6.349864015606329,0.9091030486380589,-6.3761100566051e-11
9817752300,490,9800000000,world,base_link,6.364679054771663,0.905735844850196,-6.378129968620527e-11
9877571188,491,9820000000,world,base_link,6.379494128144454,0.9023687723220206,-6.378140030016688e-11
9877613018,492,9840000000,world,base_link,6.394309235723885,0.899001831055771,-6.378150091412849e-11
9877654435,493,9860000000,world,base_link,6.409124377509347,0.8956350210537023,-6.378140030016688e-11
9937676452,494,9880000000,world,base_link,6.423939553500233,0.8922683423180047,-6.378140030016688e-11
9937733366,495,9900000000,world,base_link,6.438754763695904,0.8889017948508631,-6.378150091412849e-11
9953833373,496,9920000000,world,base_link,6.45357000809576,0.8855353786544695,-6.378150091412849e-11
9953875496,497,9940000000,world,base_link,6.468385286699185,0.8821690937310098,-6.378150091412849e-11
9997602306,498,9960000000,world,base_link,6.483200599505555,0.8788029400826698,-6.378150091412849e-11
9997646546,499,9980000000,world,base_link,6.497962025044593,0.8752004527425576,-5.33299598926007e-10
10057569674,500,10000000000,world,base_link,6.512739834510924,0.8714678135569001,-6.922338042700954e-06
10057593552,501,10020000000,world,base_link,6.5274731980729115,0.8675622515612638,-6.912685515201439e-06
10057604240,502,10040000000,world,base_link,6.542163019675879,0.863519950673135,-6.902462799000114e-06
10117593983,503,10060000000,world,base_link,6.556810662167322,0.8593458203587216,-6.891882083699674e-06
10117616576,504,10080000000,world,base_link,6.571413472638248,0.855037279271933,-6.880918703999067e-06
10117619542,505,10100000000,world,base_link,6.585968351249004,0.8505915872495562,-6.869541702099469e-06
10167730208,506,10120000000,world,base_link,6.600472559578595,0.8460057319503989,-6.857732650800141e-06
10167777363,507,10140000000,world,base_link,6.614923232524884,0.8412766777240268,-6.84547440860106e-06
10167803798,508,10160000000,world,base_link,6.629317365998258,0.8364013717453309,-6.832747646599163e-06
10217735973,509,10180000000,world,base_link,6.643625421537777,0.8314190072345413,-9.083346893014321e-07
10217864724,510,10200000000,world,base_link,6.657888743931892,0.8263280990231623,-1.4523661330985427e-06
10224540624,511,10220000000,world,base_link,6.672062500184058,0.8210468420873891,2.5080368610055914e-07
10254792858,512,10240000000,world,base_link,6.686156656451018,0.8155528355973312,-1.2254215265017354e-06
10297727431,513,10260000000,world,base_link,6.700170483708916,0.8098534165241134,-1.340770975601785e-06
10347675162,514,10280000000,world,base_link,6.714081679311789,0.803955567874068,3.9156739950127473e-07
10347845566,515,10300000000,world,base_link,6.727904349655258,0.797846958119532,-1.5227881731000315e-06
10347929858,516,10320000000,world,base_link,6.741638253199479,0.7915376589866998,-1.2356920040014485e-06
10347949285,517,10340000000,world,base_link,6.7552608508462235,0.7850338847825542,5.304970258981911e-07
10407577650,518,10360000000,world,base_link,6.768786462987819,0.7783225756350269,-1.8082656842999256e-06
10407612059,519,10380000000,world,base_link,6.7822150629605105,0.7714155936711693,-1.1341808841998369e-06
10407642731,520,10400000000,world,base_link,6.795523913973891,0.7643184799410561,6.635448592008653e-07
10442307806,521,10420000000,world,base_link,6.808728794875936,0.7570163858121761,-2.1184710405006135e-06
10442410045,522,10440000000,world,base_link,6.821830200686094,0.749522693036555,-8.886776102015603e-07
10497683870,523,10460000000,world,base_link,6.834806427834597,0.7418412833772665,7.517667717990562e-07
10497728882,524,10480000000,world,base_link,6.847670414174669,0.7339587673638315,-2.4414693808004484e-06
10557647870,525,10500000000,world,base_link,6.860422321926162,0.7258909073489423,-6.430163805998257e-07
10557691619,526,10520000000,world,base_link,6.873041616286809,0.7176396350233558,8.261526261987839e-07
10607724805,527,10540000000,world,base_link,6.885539453197847,0.7091923443192787,-2.7054045809993266e-06
10607748681,528,10560000000,world,base_link,6.897916374496539,0.7005666888070428,-5.051105168019099e-07
10607760009,529,10580000000,world,base_link,6.910152194111198,0.6917641204526017,9.095067982980987e-07
10607797213,530,10600000000,world,base_link,6.922257804972887,0.6827716808304194,-2.9234802878010113e-06
10657690341,531,10620000000,world,base_link,6.934234951862432,0.6736064712748693,-4.1946463399944456e-07
10657727249,532,10640000000,world,base_link,6.9460635991431765,0.6642696605240044,9.806113180008125e-07
10669936327,533,10660000000,world,base_link,6.957754358418889,0.6547484395884746,-3.1297387618998973e-06
10706854292,534,10680000000,world,base_link,6.969309172845104,0.645060938802744,-3.4888244760181153e-07
10747767733,535,10700000000,world,base_link,6.980707625150856,0.6352093116465509,1.0484174454983286e-06
10747812776,536,10720000000,world,base_link,6.991955703790293,0.6251853709362374,-6.745821528007789e-07
10747864358,537,10740000000,world,base_link,7.003050973052044,0.615003416359114,-6.177689956810006e-11
10797730171,538,10760000000,world,base_link,7.01398824079423,0.6046620810347836,-5.200710001540543e-11
10797761521,539,10780000000,world,base_link,7.024770260793353,0.5941593858480418,-5.2313601367481866e-11
10809043914,540,10800000000,world,base_link,7.035394808680362,0.5834975249314533,-5.719760082234515e-11
10848540842,541,10820000000,world,base_link,7.045859670617379,0.5726787165743756,-5.329469851544921e-11
10897651216,542,10840000000,world,base_link,7.05616266281093,0.5617052087383314,-5.365890023978359e-11
10897713145,543,10860000000,world,base_link,7.066301633003871,0.5505792797443885,-5.806270048092088e-11
10897824867,544,10880000000,world,base_link,7.0762744609770145,0.5393032378879559,-6.444859923515622e-11
10947738413,545,10900000000,world,base_link,7.086079058929421,0.5278794209794375,-6.478659969610945e-11
10947770944,546,10920000000,world,base_link,7.095713371929879,0.5163101959138272,-6.511340078230177e-11
10947836941,547,10940000000,world,base_link,7.105175378308193,0.5045979581902289,-6.542909963824783e-11
10997669466,548,10960000000,world,base_link,7.114463090056468,0.49274513145735543,-6.573349850547139e-11
10997716776,549,10980000000,world,base_link,7.123574553221911,0.48075416703712825,-6.602660085341938e-11
11003596357,550,11000000000,world,base_link,7.132507848293336,0.4686275434477416,-6.63081985152747e-11
11028677085,551,11020000000,world,base_link,7.141261090581015,0.4563677659207066,-6.657849965785445e-11
11087669258,552,11040000000,world,base_link,7.149832430589406,0.44397736591243575,-6.683719896982687e-11
11087708732,553,11060000000,world,base_link,7.158220054383296,0.4314589006105587,-6.708429992063891e-11
11148410459,554,11080000000,world,base_link,7.16642218394712,0.41881495243540634,-6.731989965480523e-11
11148466338,555,11100000000,world,base_link,7.174437077537256,0.40604812853614813,-6.754380041384955e-11
11207656457,556,11120000000,world,base_link,7.182263030027144,0.39316106028206566,-6.775599872832494e-11
11207677777,557,11140000000,world,base_link,7.189898373245384,0.380156402748967,-6.795650153712529e-11
11207693627,558,11160000000,world,base_link,7.197341476306697,0.3670368342008459,-6.81452012873951e-11
11207698276,559,11180000000,world,base_link,7.2045907459355085,0.35380505556688835,-6.832210144858131e-11
11207760279,560,11200000000,world,base_link,7.211644626782366,0.34046378991392245,-6.848710140672232e-11
11267620532,561,11220000000,world,base_link,7.21854742071735,0.32702226091749687,-1.8740048422019595e-06
11267654394,562,11240000000,world,base_link,7.225245717804665,0.31346129722652716,-7.600765058700387e-06
11267765042,563,11260000000,world,base_link,7.231723308860513,0.29982506680846654,-1.0030850108866396e-10
11276684106,564,11280000000,world,base_link,7.238015821217495,0.2860838800201009,-6.086850121156395e-11
11306773897,565,11300000000,world,base_link,7.244109392780995,0.27224843686659916,-5.8194799673616515e-11
11347792103,566,11320000000,world,base_link,7.250002840269616,0.2583215799538259,-5.8069399982985104e-11
11407858338,567,11340000000,world,base_link,7.255694936448833,0.24430607150123773,-5.81018011480694e-11
11407896591,568,11360000000,world,base_link,7.261183087084671,0.23020444607345247,-1.5383989915296326e-10
11407933923,569,11380000000,world,base_link,7.26646463798291,0.21601955839140086,-1.5527160113215643e-10
11407967785,570,11400000000,world,base_link,7.2715405391213785,0.20175424876156178,-1.567094995436058e-10
11457597763,571,11420000000,world,base_link,7.276409118338435,0.1874111169339221,-1.5812149853355884e-10
11457638793,572,11440000000,world,base_link,7.281076176560582,0.1729972771608006,9.633131362006553e-07
11457662506,573,11460000000,world,base_link,7.285633410595278,0.15851026783646915,-9.679908640900653e-06
11476237266,574,11480000000,world,base_link,7.289929191707756,0.14396554822977414,1.0967013619814225e-07
11510550224,575,11500000000,world,base_link,7.294037801401807,0.12935084515213102,1.0551945269984819e-07
11557624335,576,11520000000,world,base_link,7.297958594759489,0.11467335826128178,5.49057578014267e-08
11557638810,577,11540000000,world,base_link,7.301678017409248,0.09994163061758776,2.8178584601107337e-08
11607734841,578,11560000000,world,base_link,7.305176235488773,0.08515229374471645,2.844689319866922e-08
11607776283,579,11580000000,world,base_link,7.308471338478675,0.07031047135306512,2.8539694399420945e-08
11607804238,580,11600000000,world,base_link,7.31156179932292,0.05541807584209657,2.8647501801315478e-08
11657528376,581,11620000000,world,base_link,7.314449877852603,0.040477721726660754,2.8814467100540808e-08
11657555092,582,11640000000,world,base_link,7.317122423776002,0.025491923091133017,2.889198839894913e-08
