%time,seq,stamp,frame_id,x,y,z
0,0,0,world,0.0,0.0,0.0
32002007,1,50000000,world,7.643658150868761e-09,2.707759128028897e-09,3.281465410509554e-08
87606794,2,100000000,world,7.744407781729024e-09,3.414911464716397e-09,3.6007737236332105e-08
120465417,3,150000000,world,7.913192767716737e-09,3.074021703852736e-09,3.4068154519673044e-08
182112470,4,200000000,world,8.08197775370445e-09,2.7331319429890755e-09,3.212857180301398e-08
220003561,5,250000000,world,8.142401419775071e-09,2.7031903382379596e-09,3.1819553214518244e-08
282779769,6,300000000,world,8.202160728387753e-09,2.6671147512757894e-09,3.151574645698929e-08
317759812,7,350000000,world,8.257835304448236e-09,2.615600180888577e-09,3.1223272856095725e-08
381267705,8,400000000,world,8.129962481007169e-09,2.6796465046885487e-09,3.238939427774312e-08
416477749,9,450000000,world,8.002103868420818e-09,2.7436928284885202e-09,3.355552635753156e-08
484480376,10,500000000,world,6.6882295257642e-09,2.394342724088005e-09,3.4655421643492446e-08
525016318,11,550000000,world,6.675773711606325e-09,2.391792763845046e-09,3.5328231007270006e-08
582528696,12,600000000,world,6.663267715367738e-09,2.399298093536117e-09,3.5995164182622836e-08
619852740,13,650000000,world,6.5660699100078546e-09,2.489479955514184e-09,3.6478432718922704e-08
688748079,14,700000000,world,6.2418679114273345e-09,2.5703936756826806e-09,3.630025346978982e-08
734448161,15,750000000,world,5.9176659128468145e-09,2.6513073958511772e-09,3.612207422065694e-08
787893355,16,800000000,world,6.5502119284133195e-09,2.2902753027409517e-09,3.48467104061001e-08
821411946,17,850000000,world,6.744839353700627e-09,2.409567434469295e-09,3.3388264597533635e-08
891792074,18,900000000,world,8.036146859069504e-09,2.6650832651853307e-09,3.3315760816776674e-08
930925238,19,950000000,world,9.32745436443838e-09,2.920599095901366e-09,3.324325703601971e-08
995429400,20,1000000000,world,9.727317618057896e-09,3.0193343381057502e-09,3.362886147328936e-08
1019363587,21,1050000000,world,6.752294279266381e-09,2.411936650403845e-09,3.3400230137203835e-08
1085795717,22,1100000000,world,-0.0005696235457435,0.0001009766128845,0.0226174592971801
1124269808,23,1150000000,world,0.0002206384961027,0.0016200976679101,0.0626574084162712
1184799559,24,1200000000,world,0.0022072028368711,-0.0004659200494643,0.0981928259134292
1226845933,25,1250000000,world,0.0011240802705287,-0.0009395300876349,0.1367989480495453
1288750585,26,1300000000,world,0.0028327447362244,0.001190694514662,0.1772889047861099
1319368765,27,1350000000,world,0.0024684281088411,0.0011749430559575,0.2123358100652694
1394187422,28,1400000000,world,0.0020062185358256,0.0004985378473065,0.2501752376556396
1420531286,29,1450000000,world,0.0025155623443424,-0.000243807764491,0.2888285517692566
1484220463,30,1500000000,world,0.0036964267492294,0.0008310747216455,0.3259963691234588
1518601065,31,1550000000,world,0.0040366873145103,-0.0016127856215462,0.3627377450466156
1585756301,32,1600000000,world,0.0061946073547005,-0.003026254940778,0.3973318934440613
1624762305,33,1650000000,world,0.0041739186272025,0.000551153672859,0.4398719668388366
1690310894,34,1700000000,world,0.0027162476908415,-0.0001431330310879,0.4778153300285339
1720791941,35,1750000000,world,0.0037597771733999,0.0027049435302615,0.5151869058609009
1786454059,36,1800000000,world,0.0027070788200944,-0.0006792457425035,0.5484628081321716
1830474513,37,1850000000,world,0.0033284772653132,-0.0007559250807389,0.5862739682197571
1886352049,38,1900000000,world,0.003930774051696,-0.0012523143086582,0.623623251914978
1918294573,39,1950000000,world,0.0060749500989913,0.0006851581274531,0.6631483435630798
1992733610,40,2000000000,world,0.0134350582957267,0.0029218895360827,0.7081357836723328
2029743991,41,2050000000,world,0.0192371439188718,0.0070423800498247,0.7467789649963379
2098119744,42,2100000000,world,0.0258821733295917,-0.0018950153607875,0.7732324004173279
2120173029,43,2150000000,world,0.0322828218340873,0.0007597412914037,0.8131058216094971
2194426540,44,2200000000,world,0.03993596509099,0.003830422880128,0.858121931552887
2225460240,45,2250000000,world,0.0488772951066494,0.0025147278793156,0.8917558193206787
2289734703,46,2300000000,world,0.059093452990055,0.0018310789018869,0.927327275276184
2324141419,47,2350000000,world,0.0707705244421958,0.0031595421023666,0.9616916179656982
2388480622,48,2400000000,world,0.0823135375976562,-0.0005828408757224,0.9891594052314758
2417806666,49,2450000000,world,0.0877840667963028,0.002008969662711,1.0328519344329834
2485667462,50,2500000000,world,0.093914657831192,0.0008200526935979,1.0798871517181396
2518202059,51,2550000000,world,0.1003894805908203,0.0010120456572622,1.117645502090454
2596054198,52,2600000000,world,0.1102206707000732,0.0011974311200901,1.1569472551345823
2619032792,53,2650000000,world,0.1223585307598114,0.0003833519294857,1.1906871795654297
2686097137,54,2700000000,world,0.1359778344631195,-0.000642217695713,1.2253034114837646
2721827579,55,2750000000,world,0.1496602892875671,0.0009969999082386,1.2607054710388184
2788784568,56,2800000000,world,0.1674646735191345,0.0004633889766409,1.2984503507614136
2822921969,57,2850000000,world,0.1823173761367797,-0.000161318865139,1.3330838680267334
2891438574,58,2900000000,world,0.2021654695272445,0.0005047862068749,1.3675035238265991
2924365036,59,2950000000,world,0.2145024985074997,-0.000511007849127,1.40024995803833
2997175394,60,3000000000,world,0.2319273054599762,-0.0009446670301258,1.4356776475906372
3024785901,61,3050000000,world,0.2454785704612732,0.0006132186972536,1.470317244529724
3084299108,62,3100000000,world,0.2636323273181915,-0.0002740607014857,1.5044986009597778
3122656621,63,3150000000,world,0.2804986834526062,0.0018256597686558,1.5391045808792114
3187912764,64,3200000000,world,0.2961675524711609,0.0018294530455023,1.575323462486267
3223411101,65,3250000000,world,0.3143114447593689,0.0046415356919169,1.6112607717514038
3286823621,66,3300000000,world,0.3270303606986999,-0.000145305879414,1.6432862281799316
3321829096,67,3350000000,world,0.3452667891979217,0.0036135215777903,1.6788487434387207
3387954687,68,3400000000,world,0.3673031628131866,0.0041140401735901,1.7133166790008545
3417792337,69,3450000000,world,0.3825600743293762,0.0027860747650265,1.7397762537002563
3494421193,70,3500000000,world,0.4041225910186767,-6.320129614323378e-05,1.7718281745910645
3521402028,71,3550000000,world,0.4234776496887207,0.0020746141672134,1.804476976394653
3588999858,72,3600000000,world,0.4443380534648895,0.0023406194522976,1.8367091417312624
3620945898,73,3650000000,world,0.4583172500133514,0.0006984386127442,1.8680899143218996
3689492582,74,3700000000,world,0.4769851267337799,0.0056882882490754,1.9110127687454224
3720860742,75,3750000000,world,0.4950962662696838,0.0046766097657382,1.9430739879608157
3789772328,76,3800000000,world,0.5141746997833252,0.0076074046082794,1.9789707660675049
3825653509,77,3850000000,world,0.5353484153747559,0.0042524822056293,2.007253885269165
3886743158,78,3900000000,world,0.5536893010139465,0.0054581882432103,2.041144371032715
3922221195,79,3950000000,world,0.5721877217292786,0.0038004696834832,2.0756618976593018
3999211395,80,4000000000,world,0.5915669798851013,0.0037644959520548,2.1073732376098637
4021299960,81,4050000000,world,0.6108047366142273,0.0053780227899551,2.1367406845092773
4090956575,82,4100000000,world,0.6331418752670288,0.0061663333326578,2.1719963550567627
4122453569,83,4150000000,world,0.6497081518173218,0.0062924739904701,2.2055251598358154
4185640582,84,4200000000,world,0.6716755628585815,0.0046389875933527,2.2368853092193604
4223443634,85,4250000000,world,0.6922556161880493,0.0047058993950486,2.271876335144043
4286971672,86,4300000000,world,0.7116233706474304,0.0060569616034626,2.304682970046997
4323809620,87,4350000000,world,0.7307153344154358,0.0062907515093684,2.338396549224853
4390086646,88,4400000000,world,0.750463604927063,0.0066852481104433,2.3720080852508545
4422010060,89,4450000000,world,0.7691220641136169,0.010415706783533,2.406193971633911
4492158039,90,4500000000,world,0.7909290790557861,0.0105775408446788,2.440871238708496
4523656722,91,4550000000,world,0.8056055903434753,0.010604029521346,2.469919443130493
4586106495,92,4600000000,world,0.8295939564704895,0.0116044851019978,2.506478071212769
4619985368,93,4650000000,world,0.8492030501365662,0.0107958270236849,2.537194967269897
4695299496,94,4700000000,world,0.8676291704177856,0.0086635164916515,2.570258855819702
4722502930,95,4750000000,world,0.8844360113143921,0.0132688544690608,2.6092543601989746
4792524919,96,4800000000,world,0.9026374816894532,0.0114538129419088,2.640237808227539
4821307535,97,4850000000,world,0.9229325652122498,0.0108479969203472,2.66981053352356
4893649064,98,4900000000,world,0.9426777362823486,0.0137607045471668,2.708345651626587
4928742096,99,4950000000,world,0.9634945392608644,0.0100300638005137,2.738717555999756
4994891834,100,5000000000,world,0.9796635508537292,0.0109043605625629,2.771436929702759
5033401171,101,5050000000,world,0.9994120001792908,0.0122877527028322,2.8034231662750244
5094977044,102,5100000000,world,1.0274516344070437,0.0062513099983334,2.8347342014312744
5121275762,103,5150000000,world,1.0412890911102295,0.0035051614977419,2.8641726970672607
5197258048,104,5200000000,world,1.0627351999282837,0.0043201302178204,2.8987371921539307
5226472826,105,5250000000,world,1.0845561027526855,0.0059894323348999,2.9313228130340576
5294338113,106,5300000000,world,1.1013818979263306,0.0046577015891671,2.9633431434631348
5329928589,107,5350000000,world,1.1205703020095823,0.0054592201486229,2.9974069595336914
5393716246,108,5400000000,world,1.14361310005188,0.005588533822447,3.034777879714966
5422853446,109,5450000000,world,1.1592209339141846,0.0062087532132864,3.0697476863861084
5496326263,110,5500000000,world,1.1803724765777588,0.0056256214156746,3.097874879837036
5524541773,111,5550000000,world,1.1982498168945312,0.0062092100270092,3.130970001220703
5589463909,112,5600000000,world,1.219422698020935,0.0061114346608519,3.16435980796814
5626498515,113,5650000000,world,1.239108920097351,0.0063006468117237,3.196815729141236
5693559507,114,5700000000,world,1.2575032711029053,0.0135951116681098,3.234517335891724
5723675188,115,5750000000,world,1.2772033214569092,0.0112526770681142,3.2672815322875977
5798846097,116,5800000000,world,1.2969110012054443,0.0112540265545248,3.300665140151977
5818793896,117,5850000000,world,1.316869616508484,0.0134768616408109,3.333627223968506
5889723693,118,5900000000,world,1.33552885055542,0.0123929399996995,3.3673908710479736
5917961572,119,5950000000,world,1.3557595014572144,0.008296531625092,3.399655342102051
5991884265,120,6000000000,world,1.3753105401992798,0.0115325208753347,3.433024644851685
6028709136,121,6050000000,world,1.3935364484786987,0.0102805439382791,3.4645323753356934
6094833400,122,6100000000,world,1.414552092552185,0.0098174037411808,3.4960579872131348
6129845420,123,6150000000,world,1.433889389038086,0.00969566591084,3.5313448905944824
6193928266,124,6200000000,world,1.4544652700424194,0.0092068966478109,3.561851978302002
6223085259,125,6250000000,world,1.4730656147003174,0.0088661052286624,3.6051878929138175
6286079659,126,6300000000,world,1.4915177822113037,0.0085217822343111,3.636475801467896
6322277979,127,6350000000,world,1.5134798288345337,0.0089943232014775,3.670122146606445
6396743580,128,6400000000,world,1.531665563583374,0.0071964804083108,3.702783107757568
6435341529,129,6450000000,world,1.5492690801620483,0.0048714810982346,3.7340168952941895
6497927937,130,6500000000,world,1.5715250968933103,0.0051587112247943,3.7644450664520255
6522257288,131,6550000000,world,1.590633749961853,0.0037665364798158,3.798600673675537
6591792223,132,6600000000,world,1.6118204593658447,0.0080536268651485,3.83561897277832
6624028575,133,6650000000,world,1.629671335220337,0.0081422645598649,3.868426561355591
6694040134,134,6700000000,world,1.649083137512207,0.0060394746251404,3.901605129241944
6727062502,135,6750000000,world,1.6655166149139404,0.0070933485403656,3.937007188796997
6796095224,136,6800000000,world,1.685425877571106,0.0059383488260209,3.968141794204712
6833239509,137,6850000000,world,1.7069116830825806,0.0049735330976545,3.9988889694213863
6894734956,138,6900000000,world,1.7300511598587036,0.0019916847813874,4.027273654937744
6927860110,139,6950000000,world,1.75782573223114,0.0035299025475978,4.0694122314453125
6991890684,140,7000000000,world,1.7790286540985107,0.0039206580258905,4.103049278259277
7027734869,141,7050000000,world,1.8013849258422852,0.0050017149187624,4.134675025939941
7088441021,142,7100000000,world,1.8257557153701784,0.0036109050270169,4.165231704711914
7129188692,143,7150000000,world,1.8495028018951416,0.0035493720788508,4.192205429077148
7199437137,144,7200000000,world,1.8704032897949217,-0.005191667471081,4.225308418273926
7235022194,145,7250000000,world,1.895025372505188,-0.0027264803647994,4.255522727966309
7289884276,146,7300000000,world,1.9200897216796875,-0.0052473600953817,4.283880233764648
7325723456,147,7350000000,world,1.9440165758132932,-0.0063554719090461,4.313678741455078
7391287022,148,7400000000,world,1.971329689025879,-0.0091629829257726,4.33878231048584
7429634818,149,7450000000,world,1.9970452785491943,-0.0093839969485998,4.362099170684815
7496919002,150,7500000000,world,2.03629207611084,0.0006242875242605,4.399652004241943
7521475037,151,7550000000,world,2.063715696334839,0.00013541104272,4.4246978759765625
7593752658,152,7600000000,world,2.0896224975585938,0.0027733177412301,4.454736232757568
7630336908,153,7650000000,world,2.1147890090942383,0.0016718258848413,4.482550621032715
7695548399,154,7700000000,world,2.141077995300293,0.0022289655171334,4.512969017028809
7736927990,155,7750000000,world,2.1655080318450928,0.0024275234900414,4.539854526519775
7795975880,156,7800000000,world,2.1867945194244385,0.0007156897336244,4.5714616775512695
7820874661,157,7850000000,world,2.213586807250977,-0.0005726388189941,4.597097396850586
7896024316,158,7900000000,world,2.240602731704712,0.0008844370022416,4.622949123382568
7932635202,159,7950000000,world,2.26633095741272,0.0011688864324241,4.6510844230651855
7999323891,160,8000000000,world,2.292072534561157,-0.0007388263475149,4.68089485168457
8027727184,161,8050000000,world,2.317176342010498,-0.0018585135694593,4.7102484703063965
8091078034,162,8100000000,world,2.345288753509521,0.0007213031640276,4.735260963439941
8128608837,163,8150000000,world,2.371164321899414,-0.0013061591889709,4.761025428771973
8192447153,164,8200000000,world,2.3962507247924805,-0.002859957749024,4.788875102996826
8226610909,165,8250000000,world,2.42522406578064,0.0009993899147957,4.815498352050781
8292862134,166,8300000000,world,2.450470209121704,0.0010597258806228,4.84381103515625
8326580481,167,8350000000,world,2.476588487625122,-0.0017547399038448,4.874567985534668
8390341136,168,8400000000,world,2.5044479370117188,-0.0022082135546952,4.9000325202941895
8431422047,169,8450000000,world,2.532761812210083,-0.0051494417712092,4.914807319641113
8494452583,170,8500000000,world,2.567375659942627,-0.0060760658234357,4.938650131225586
8525315784,171,8550000000,world,2.597498655319214,-0.0025378344580531,4.96046257019043
8604036843,172,8600000000,world,2.627523422241211,-0.0056595178321003,4.985315799713135
8642391143,173,8650000000,world,2.65324068069458,-0.0043756812810897,5.01424503326416
8707430412,174,8700000000,world,2.684870481491089,-0.0063637364655733,5.037422180175781
8732619634,175,8750000000,world,2.7166805267333984,0.0026558632962405,5.059513568878174
8799979298,176,8800000000,world,2.745613813400269,-0.0068685044534504,5.081576824188232
8828622821,177,8850000000,world,2.777863025665283,-0.0019809727091342,5.106695175170898
8892433976,178,8900000000,world,2.796329975128174,0.0093486020341515,5.146634101867676
8926486934,179,8950000000,world,2.8260064125061035,0.0037975269369781,5.16885232925415
8996722835,180,9000000000,world,2.857317447662353,0.0102692451328039,5.19194221496582
9029174188,181,9050000000,world,2.8846237659454346,0.0029451213777065,5.217529296875
9091729854,182,9100000000,world,2.9156994819641118,0.005908949766308,5.239750862121582
9124517098,183,9150000000,world,2.945118188858032,0.0015457682311534,5.261858940124512
9197569731,184,9200000000,world,2.976771593093872,-0.0023655011318624,5.283862590789795
9228763370,185,9250000000,world,3.004784107208252,0.0023368927650153,5.296865940093994
9304464465,186,9300000000,world,3.032208204269409,0.0039978004060685,5.326668739318848
9331088698,187,9350000000,world,3.064595460891724,0.003447868861258,5.3498735427856445
9397609295,188,9400000000,world,3.0888571739196777,-0.0014433041214942,5.379343032836914
9426965714,189,9450000000,world,3.122224807739258,0.0045503387227654,5.398684024810791
9496694056,190,9500000000,world,3.150571584701538,0.0015863822773098,5.420044422149658
9532656047,191,9550000000,world,3.183411121368408,0.0006060698069632,5.438997268676758
9594181419,192,9600000000,world,3.211686611175537,0.0012360953260213,5.468013286590576
9627333274,193,9650000000,world,3.2387471199035645,0.0018396894447505,5.492958068847656
9692090523,194,9700000000,world,3.2718138694763184,0.0054529448971152,5.513981819152832
9723110286,195,9750000000,world,3.3004021644592285,0.0051331920549273,5.539329528808594
9799140012,196,9800000000,world,3.329518795013428,7.900036871433258e-05,5.565006256103516
9830605208,197,9850000000,world,3.3608522415161133,0.0074934288859367,5.586085319519043
9890262321,198,9900000000,world,3.39251446723938,-0.0027417852543294,5.604793548583984
9924738565,199,9950000000,world,3.4221343994140625,-0.0030293236486613,5.630639553070068
9990447611,200,10000000000,world,3.4499387741088867,-0.0005101161077618,5.6563005447387695
10030770268,201,10050000000,world,3.482267379760742,-0.001395083963871,5.675209045410156
10111119791,202,10100000000,world,3.513275623321533,-0.0025911012198776,5.697760105133057
10143519157,203,10150000000,world,3.5444366931915283,-0.0057970932684838,5.717314720153809
10203920590,204,10200000000,world,3.579453945159912,-0.0043489625677466,5.734580993652344
10237492725,205,10250000000,world,3.612435817718506,-0.0021954514086246,5.754909515380859
10297592608,206,10300000000,world,3.6448068618774414,0.0013797162100672,5.77448034286499
10327121903,207,10350000000,world,3.67800235748291,-0.000799766741693,5.791647911071777
10398777645,208,10400000000,world,3.712637662887573,-0.0003817705437541,5.80650520324707
10435184458,209,10450000000,world,3.749645709991455,-0.0005005355924367,5.821167469024658
10491726978,210,10500000000,world,3.783146381378174,-0.0030977553687989,5.834049701690674
10527035111,211,10550000000,world,3.8202831745147705,-0.0006767036393284,5.846060752868652
10602364124,212,10600000000,world,3.855654001235962,-0.000971782952547,5.857630252838135
10623906086,213,10650000000,world,3.893124103546143,0.0026496350765228,5.866965293884277
10696564241,214,10700000000,world,3.924508571624756,-0.0031154276803135,5.871273994445801
10730834445,215,10750000000,world,3.960777759552002,-0.0046305321156978,5.87797737121582
10790674699,216,10800000000,world,3.99749755859375,-0.0062625636346638,5.881130695343018
10829173027,217,10850000000,world,4.03560209274292,-0.0060666487552225,5.886219024658203
10894128746,218,10900000000,world,4.073563098907471,-0.0069670700468122,5.889599323272705
10923199530,219,10950000000,world,4.111266613006592,-0.0033170217648148,5.889220237731934
10991737133,220,11000000000,world,4.150496959686279,0.0014747306704521,5.886014461517334
11024618693,221,11050000000,world,4.187700748443604,-0.0001986715942621,5.884352207183838
11093596707,222,11100000000,world,4.2264509201049805,0.0019521936774253,5.882014274597168
11128036140,223,11150000000,world,4.261399269104004,-0.000781500712037,5.874992370605469
11192007892,224,11200000000,world,4.296526908874512,0.0012294687330722,5.874341011047363
11225294951,225,11250000000,world,4.332263469696045,-0.0011314563453197,5.865316390991211
11291299593,226,11300000000,world,4.370232105255127,-0.0018557198345661,5.856900691986084
11325132279,227,11350000000,world,4.404697418212891,-0.0013464391231536,5.845838069915772
11389966045,228,11400000000,world,4.444649696350098,0.0033284090459346,5.839328765869141
11434963347,229,11450000000,world,4.478382110595703,0.0045633167028427,5.827279090881348
11497335575,230,11500000000,world,4.510914325714111,0.0031654201447963,5.812958240509033
11521190655,231,11550000000,world,4.545235633850098,0.0012209452688694,5.7968339920043945
11595386807,232,11600000000,world,4.588122367858887,-0.004056166857481,5.784778594970703
11625821567,233,11650000000,world,4.617560386657715,-0.0054029356688261,5.765753269195557
11694585802,234,11700000000,world,4.652863025665283,-0.0054273325949907,5.748099327087402
11730528009,235,11750000000,world,4.685011386871338,-0.003530066460371,5.728410720825195
11795173902,236,11800000000,world,4.717819213867188,-0.0048665050417184,5.706745147705078
11826027381,237,11850000000,world,4.75026273727417,-0.004793943837285,5.686214447021484
11894304090,238,11900000000,world,4.7806501388549805,-0.0049543753266334,5.666037559509277
11929044488,239,11950000000,world,4.812108993530273,-0.0038180574774742,5.64439868927002
11990720366,240,12000000000,world,4.846190452575684,-0.0034388452768325,5.6202392578125
12021694496,241,12050000000,world,4.877657413482666,-0.001358650624752,5.600064277648926
12097913606,242,12100000000,world,4.908093452453613,-0.0012481808662414,5.578888416290283
12121155714,243,12150000000,world,4.93814754486084,-0.0033127106726169,5.557544708251953
12189997799,244,12200000000,world,4.970272064208984,-0.0057258922606706,5.537302017211914
12226233405,245,12250000000,world,5.002094268798828,-0.0054705962538719,5.516783714294434
12297669837,246,12300000000,world,5.035113334655762,-0.0047084931284189,5.4955153465271
12338144966,247,12350000000,world,5.070202350616455,-0.008681240491569,5.4750142097473145
12395008138,248,12400000000,world,5.099972724914551,-0.009610055014491,5.454002380371094
12427181199,249,12450000000,world,5.133461952209473,-0.0102383214980363,5.433788299560547
12495179780,250,12500000000,world,5.164144992828369,-0.0100792935118079,5.412710666656494
12529389851,251,12550000000,world,5.196786880493164,-0.0082277189940214,5.39187479019165
12592721178,252,12600000000,world,5.227686405181885,-0.0072875451296567,5.371045112609863
12630274477,253,12650000000,world,5.258566856384277,-0.0082045271992683,5.350496292114258
12688795786,254,12700000000,world,5.28989315032959,-0.0071701579727232,5.329919815063477
12727095113,255,12750000000,world,5.322790622711182,-0.005611952394247,5.309325695037842
12799821340,256,12800000000,world,5.355739593505859,-0.0068314187228679,5.288010120391846
12834258393,257,12850000000,world,5.386146068572998,-0.0062778769060969,5.267327308654785
12897660819,258,12900000000,world,5.417271614074707,-0.0051981071010231,5.246761322021484
12930922350,259,12950000000,world,5.449907302856445,-0.0051436573266983,5.226931571960449
12999150371,260,13000000000,world,5.480607986450195,-0.0043920008465647,5.205534934997559
13026365518,261,13050000000,world,5.513044357299805,-0.0045126741752028,5.184720039367676
13102444424,262,13100000000,world,5.544277191162109,-0.0072086625732481,5.164408683776856
13133532851,263,13150000000,world,5.576604843139648,-0.0071474802680313,5.144593715667725
13201112163,264,13200000000,world,5.608452796936035,-0.0066149272024631,5.123302459716797
13234398956,265,13250000000,world,5.64024829864502,-0.0059699406847357,5.102716445922852
13299007966,266,13300000000,world,5.671162128448486,-0.0065982560627162,5.081847190856934
13327095669,267,13350000000,world,5.701754093170166,-0.0071444460190832,5.060829162597656
13399738284,268,13400000000,world,5.731913566589356,-0.0070342142134904,5.039381504058838
13429983696,269,13450000000,world,5.763921737670898,-0.0081837093457579,5.020002841949463
13494450204,270,13500000000,world,5.796202182769775,-0.0079254247248172,4.999170303344727
13532074753,271,13550000000,world,5.828099727630615,-0.0066909315064549,4.978913307189941
13596802336,272,13600000000,world,5.86033821105957,-0.0050945105031132,4.958456039428711
13627021468,273,13650000000,world,5.892726898193359,-0.0064443605951964,4.938046455383301
13696074327,274,13700000000,world,5.925466537475586,-0.007424003444612,4.917160987854004
13732782053,275,13750000000,world,5.957046508789063,-0.0081217112019658,4.8966569900512695
13798037635,276,13800000000,world,5.989507675170898,-0.0079982504248619,4.876160144805908
13827170172,277,13850000000,world,6.021819114685059,-0.0072296280413866,4.855382919311523
13897580629,278,13900000000,world,6.056300163269043,-0.0097152404487133,4.833430290222168
13924621701,279,13950000000,world,6.086952209472656,-0.0079006543383002,4.812417984008789
13992947974,280,14000000000,world,6.118995189666748,-0.0095411147922277,4.791759490966797
14032739958,281,14050000000,world,6.14941930770874,-0.0091666653752326,4.770180702209473
14096735986,282,14100000000,world,6.183791637420654,-0.008896566927433,4.751100063323975
14128711655,283,14150000000,world,6.217286109924316,-0.0106458384543657,4.730032920837402
14197940732,284,14200000000,world,6.248017311096191,-0.0105905029922723,4.708234786987305
14240543471,285,14250000000,world,6.279375076293945,-0.0094227185472846,4.68679141998291
14297433092,286,14300000000,world,6.311014652252197,-0.0088932570070028,4.664186477661133
14331641122,287,14350000000,world,6.339557647705078,-0.0091440062969923,4.6411967277526855
14395645879,288,14400000000,world,6.367758274078369,-0.0067925108596682,4.617192268371582
14447291646,289,14450000000,world,6.39812707901001,-0.0074438247829675,4.593991279602051
14496134936,290,14500000000,world,6.424994468688965,-0.0070717362686991,4.569207191467285
14529188266,291,14550000000,world,6.450966358184815,-0.0072187939658761,4.544013977050781
14605757245,292,14600000000,world,6.482609272003174,-0.0072003374807536,4.516851425170898
14630007234,293,14650000000,world,6.507440090179443,-0.0049644280225038,4.490971565246582
14704146714,294,14700000000,world,6.537024974822998,-0.0062073860317468,4.459689617156982
14740224702,295,14750000000,world,6.558440685272217,-0.0079472102224826,4.436541557312012
14807704169,296,14800000000,world,6.5822954177856445,-0.0044673285447061,4.40825891494751
14850017061,297,14850000000,world,6.607624530792236,-0.0054157138802111,4.379317283630371
14918840846,298,14900000000,world,6.6319580078125,-0.0083994148299098,4.343608856201172
14949950831,299,14950000000,world,6.655179977416992,-0.0073703341186046,4.316098690032959
15002761259,300,15000000000,world,6.677875518798828,-0.0059177000075578,4.286848545074463
15049689678,301,15050000000,world,6.7027201652526855,-0.0067632906138896,4.258428573608398
15102342218,302,15100000000,world,6.721334457397461,-0.0067152082920074,4.223803997039795
15133044011,303,15150000000,world,6.743391990661621,-0.0086316559463739,4.193195819854736
15208465577,304,15200000000,world,6.76303243637085,-0.0088522788137197,4.163956165313721
15235565513,305,15250000000,world,6.786535739898682,-0.0078728329390287,4.137427806854248
15305445806,306,15300000000,world,6.812249183654785,-0.0038755410350859,4.098858833312988
15332528101,307,15350000000,world,6.833988666534424,-0.001927905366756,4.067168235778809
15402648827,308,15400000000,world,6.856366157531738,-0.0013436279259622,4.035337448120117
15434482375,309,15450000000,world,6.879391670227051,-0.0012398995459079,4.00645637512207
15502945522,310,15500000000,world,6.899071216583252,-0.0005685605574399,3.973221063613892
15536108645,311,15550000000,world,6.9227142333984375,-0.0013941748766228,3.9387519359588623
15606649196,312,15600000000,world,6.944342136383057,-0.0040222331881523,3.9122390747070312
15655429482,313,15650000000,world,6.965137004852295,-0.0005535206291824,3.8787336349487305
15707182994,314,15700000000,world,6.99030351638794,-0.0059035662561655,3.8509938716888423
15728004881,315,15750000000,world,7.021388530731201,0.0001315763220191,3.812098503112793
15799166985,316,15800000000,world,7.03668212890625,-0.0002669254317879,3.784786939620972
15833296201,317,15850000000,world,7.06270170211792,-4.261918365955353e-05,3.752469539642334
15899898284,318,15900000000,world,7.083138465881348,-7.088668644428253e-05,3.717026710510254
15930312031,319,15950000000,world,7.106651782989502,0.0018352884799242,3.684519290924072
16011602317,320,16000000000,world,7.127495765686035,0.0024337843060493,3.654479503631592
16042475715,321,16050000000,world,7.14932918548584,-0.0011845221742987,3.625781774520874
16095283788,322,16100000000,world,7.167547225952148,-0.0023927949368953,3.599825382232666
16128310643,323,16150000000,world,7.186305046081543,-0.003109561279416,3.5705666542053223
16196068249,324,16200000000,world,7.211574554443359,-0.0035482607781887,3.5396313667297363
16225067278,325,16250000000,world,7.232793807983398,-0.0024708062410354,3.5106749534606934
16301402145,326,16300000000,world,7.256660461425781,-0.0037944428622722,3.4779748916625977
16326487788,327,16350000000,world,7.279980659484863,-0.0028074942529201,3.446533679962158
16396560110,328,16400000000,world,7.29878568649292,-0.0023065283894538,3.417084217071533
16428801775,329,16450000000,world,7.318954944610596,-0.0033876048400998,3.38565444946289
16498514201,330,16500000000,world,7.342308521270752,-0.0043646320700645,3.354581832885742
16527389609,331,16550000000,world,7.363385200500488,-0.0038676299154758,3.3261232376098637
16596693371,332,16600000000,world,7.383632183074951,-0.0041817035526037,3.297208786010742
16626200682,333,16650000000,world,7.406387805938721,-0.0040303571149706,3.2659401893615723
16691629857,334,16700000000,world,7.42767333984375,-0.0048089046031236,3.235193014144897
16724975541,335,16750000000,world,7.450299263000488,-0.0055214231833815,3.2036948204040527
16792888049,336,16800000000,world,7.470625877380371,-0.0053178193047642,3.1742398738861084
16828597340,337,16850000000,world,7.493195533752441,-0.0053447410464286,3.142115592956543
16896612899,338,16900000000,world,7.51628303527832,-0.004820380359888,3.10998797416687
16932311164,339,16950000000,world,7.534846305847168,-0.0067143123596906,3.0823214054107666
16998618502,340,17000000000,world,7.563849449157715,-0.0016529380809515,3.0395050048828125
17036789906,341,17050000000,world,7.584259033203125,-0.0008716317825019,3.010243654251098
17102017148,342,17100000000,world,7.606175899505615,-0.0001236926764249,2.9783613681793213
17128659470,343,17150000000,world,7.629844665527344,-0.0005422108806669,2.94628381729126
17196295214,344,17200000000,world,7.649660110473633,-0.0003194427117705,2.915038585662842
17244259495,345,17250000000,world,7.6711626052856445,-0.000124370213598,2.8849425315856934
17302979995,346,17300000000,world,7.693952560424805,-0.0012016450054943,2.8547379970550537
17336788076,347,17350000000,world,7.716894626617432,-0.0005792523734271,2.821600914001465
17423049594,348,17400000000,world,7.736483573913574,-0.0018132666591554,2.793334484100342
17444340080,349,17450000000,world,7.759480476379394,-0.0044362074695527,2.761481761932373
17496115060,350,17500000000,world,7.780467987060547,-0.0044191861525177,2.731445550918579
17532909571,351,17550000000,world,7.802826881408691,-0.0047513907775282,2.6995785236358643
17598822765,352,17600000000,world,7.826631546020508,-0.0019807107746601,2.668627977371216
17631242053,353,17650000000,world,7.847192764282227,-0.0007940216455608,2.635594606399536
17701349267,354,17700000000,world,7.863322257995605,-0.0036360956728458,2.606104850769043
17733797413,355,17750000000,world,7.885699272155762,-0.0018864038866013,2.567767858505249
17799135763,356,17800000000,world,7.902601718902588,-0.0014435499906539,2.5340023040771484
17831151662,357,17850000000,world,7.918081283569336,-0.0026401982177048,2.5086350440979004
17903908829,358,17900000000,world,7.93409538269043,-0.0005616219714283,2.4809465408325195
17929093589,359,17950000000,world,7.950123786926269,0.0018058532150462,2.438211441040039
17998370235,360,18000000000,world,7.960456848144531,-0.002023559063673,2.412620306015014
18041729168,361,18050000000,world,7.971807479858398,-0.0018124094931408,2.375788927078247
18096586148,362,18100000000,world,7.980232238769531,-0.001584158744663,2.341872215270996
18129845684,363,18150000000,world,7.987906455993652,-0.0020161177963018,2.305455207824707
18197211670,364,18200000000,world,7.996916770935059,0.0002834303304553,2.2644221782684326
18230675498,365,18250000000,world,7.999500274658203,-0.0035669635981321,2.232102394104004
18300021347,366,18300000000,world,8.012507438659668,-0.0022971536964178,2.1745753288269043
18336431973,367,18350000000,world,8.016633987426758,-0.0012925267219543,2.134469985961914
18394084945,368,18400000000,world,8.016818046569824,-0.000414915382862,2.095696926116944
18428431802,369,18450000000,world,8.019929885864258,0.001995675265789,2.061943769454956
18487684778,370,18500000000,world,8.016706466674805,0.003861797042191,2.021763563156128
18528210569,371,18550000000,world,8.012781143188477,0.0066910898312926,1.9845662117004397
18592760641,372,18600000000,world,8.010339736938477,0.0061712861061096,1.9468731880187988
18637718559,373,18650000000,world,8.009979248046875,0.0077733350917696,1.911709308624268
18696462591,374,18700000000,world,7.998648643493652,-0.0002501010894775,1.8776488304138184
18735067093,375,18750000000,world,7.987768650054932,0.0075622582808136,1.838143348693848
18788751782,376,18800000000,world,7.977448463439941,0.0034945853985846,1.8103280067443848
18830566038,377,18850000000,world,7.964505672454834,-0.0021165981888771,1.769428253173828
18892879178,378,18900000000,world,7.954350471496582,-0.0024408102035522,1.7340679168701172
18927942826,379,18950000000,world,7.938799381256103,0.0029005967080593,1.696883201599121
18999690104,380,19000000000,world,7.923484802246094,0.0023399470373988,1.6623830795288086
19030689563,381,19050000000,world,7.908843040466309,0.0021793153136968,1.6282243728637695
19099120975,382,19100000000,world,7.895540237426758,0.0101237557828426,1.576582908630371
19125277922,383,19150000000,world,7.877408981323242,0.0111657828092575,1.543779373168945
19199920123,384,19200000000,world,7.856201171875,0.0129153439775109,1.51007080078125
19231813330,385,19250000000,world,7.834217548370361,0.0128555949777364,1.4751605987548828
19294997784,386,19300000000,world,7.8153076171875,0.0114930626004934,1.459369659423828
19323033417,387,19350000000,world,7.79416561126709,0.0113394651561975,1.4300899505615234
19396161833,388,19400000000,world,7.761157989501953,0.0114393681287765,1.3795709609985352
19428270604,389,19450000000,world,7.738693714141846,0.0120938420295715,1.3481407165527344
19489317693,390,19500000000,world,7.717518806457519,0.0102761276066303,1.317434310913086
19521939545,391,19550000000,world,7.690476417541504,0.0113929323852062,1.2835941314697266
19590593452,392,19600000000,world,7.669636726379394,0.0132515970617532,1.250605583190918
19621571101,393,19650000000,world,7.647500991821289,0.0138497538864612,1.2196693420410156
19696741922,394,19700000000,world,7.628678798675537,0.0122990999370813,1.188882827758789
19731500719,395,19750000000,world,7.600186824798584,0.0099976416677236,1.1511898040771484
19799575784,396,19800000000,world,7.580415725708008,0.0113406870514154,1.1180438995361328
19831005525,397,19850000000,world,7.555880546569824,0.0124775823205709,1.0855093002319336
19901485798,398,19900000000,world,7.53373908996582,0.0153412893414497,1.0534276962280271
19935583564,399,19950000000,world,7.513951301574707,0.0148392990231513,1.0237021446228027
19994057209,400,20000000000,world,7.500789642333984,0.0116851478815078,0.9935517311096193
20023720863,401,20050000000,world,7.478781700134277,0.0110508520156145,0.9605517387390136
20089200204,402,20100000000,world,7.45122766494751,0.0105626918375492,0.927943229675293
20129685439,403,20150000000,world,7.431177139282227,0.0096164084970951,0.8981466293334961
20200948811,404,20200000000,world,7.411429405212402,0.0087434258311986,0.8671164512634277
20232547184,405,20250000000,world,7.384042263031006,0.0114035755395889,0.8270683288574219
20293566531,406,20300000000,world,7.365397930145264,0.0113885067403316,0.7975802421569824
20321230907,407,20350000000,world,7.343820095062256,0.0106126768514513,0.7650785446166992
20389544871,408,20400000000,world,7.319420337677002,0.011419428512454,0.7332606315612793
20436750862,409,20450000000,world,7.295408248901367,0.0108914654701948,0.7001123428344727
20500064492,410,20500000000,world,7.274941921234131,0.0115984939038753,0.6676797866821289
20534178209,411,20550000000,world,7.2501220703125,0.0118552250787615,0.6372089385986328
20592894371,412,20600000000,world,7.227111339569092,0.0149390939623117,0.6027374267578125
20629846246,413,20650000000,world,7.205007553100586,0.0147369829937815,0.5718317031860352
20708329784,414,20700000000,world,7.1856536865234375,0.0156723484396934,0.5403652191162109
20737212278,415,20750000000,world,7.163395881652832,0.0151227079331874,0.5082821846008301
20816976118,416,20800000000,world,7.140356540679932,0.0152147663757205,0.4768662452697754
20851699417,417,20850000000,world,7.1180925369262695,0.0161637663841247,0.4452161788940429
20914563693,418,20900000000,world,7.097829818725586,0.0114311054348945,0.4115529060363769
20936610565,419,20950000000,world,7.074804306030273,0.0109386127442121,0.3793611526489258
21004372138,420,21000000000,world,7.05296516418457,0.0108078243210911,0.3465991020202636
21039276894,421,21050000000,world,7.030100345611572,0.0113997869193553,0.3152775764465332
21095968256,422,21100000000,world,7.007907867431641,0.0102415289729833,0.2834682464599609
21133912069,423,21150000000,world,6.984751224517822,0.0107574379071593,0.252413272857666
21197630742,424,21200000000,world,6.962179660797119,0.010115897282958,0.2186932563781738
21236439317,425,21250000000,world,6.940000534057617,0.0102105680853128,0.1873311996459961
21299239431,426,21300000000,world,6.918168544769287,0.0102795325219631,0.1541790962219238
21334113894,427,21350000000,world,6.89512825012207,0.0102776773273944,0.1235241889953613
21405038260,428,21400000000,world,6.874767303466797,0.0118189956992864,0.0941443443298339
21432137945,429,21450000000,world,6.851661682128906,0.0120667107403278,0.0595083236694335
21502055205,430,21500000000,world,6.829695224761963,0.0122802257537841,0.0250658988952636
21528508329,431,21550000000,world,6.807812690734863,0.0105835031718015,-0.0015740394592285
21598045001,432,21600000000,world,6.786122798919678,0.01025284640491,-0.0353789329528808
21635453846,433,21650000000,world,6.763124942779541,0.0107795884832739,-0.071258544921875
21690298993,434,21700000000,world,6.741036415100098,0.0105786453932523,-0.1031413078308105
21724842306,435,21750000000,world,6.720371723175049,0.010995265096426,-0.1353740692138672
21793880997,436,21800000000,world,6.696715354919434,0.0114100947976112,-0.1655387878417968
21826410119,437,21850000000,world,6.67497444152832,0.010858142748475,-0.1986150741577148
21899679273,438,21900000000,world,6.652565002441406,0.0114215537905693,-0.2272901535034179
21932730403,439,21950000000,world,6.631461143493652,0.0107453474774956,-0.2619404792785644
22006529401,440,22000000000,world,6.609135150909424,0.0118569303303956,-0.2920966148376465
22044642899,441,22050000000,world,6.588554382324219,0.0109990704804658,-0.3242959976196289
22100133304,442,22100000000,world,6.566434383392334,0.0122529044747352,-0.3576641082763672
22126074037,443,22150000000,world,6.543182849884033,0.0113583635538816,-0.3884463310241699
22197580830,444,22200000000,world,6.522726535797119,0.010249363258481,-0.4155340194702148
22228808758,445,22250000000,world,6.501133918762207,0.0112559832632541,-0.4466543197631836
22294277733,446,22300000000,world,6.478426456451416,0.0105134565383195,-0.4812631607055664
22332376945,447,22350000000,world,6.456957817077637,0.0111489351838827,-0.5127782821655273
22399759979,448,22400000000,world,6.437666893005371,0.0123584438115358,-0.5438141822814941
22431175097,449,22450000000,world,6.416497707366943,0.0114779155701398,-0.5771112442016602
22495723616,450,22500000000,world,6.392704010009766,0.0119606703519821,-0.6077475547790527
22532804455,451,22550000000,world,6.370882987976074,0.0112106315791606,-0.6400690078735352
22606652462,452,22600000000,world,6.34799861907959,0.0106800552457571,-0.6709260940551758
22625456344,453,22650000000,world,6.322789192199707,0.0124664790928363,-0.6986265182495117
22698729009,454,22700000000,world,6.299241065979004,0.0119179654866456,-0.7294554710388184
22731587141,455,22750000000,world,6.273589134216309,0.0126769337803125,-0.7561664581298828
22796573373,456,22800000000,world,6.248571395874023,0.0128586441278457,-0.7862124443054199
22825184427,457,22850000000,world,6.222156524658203,0.0127059966325759,-0.8115992546081543
22908610319,458,22900000000,world,6.195433616638184,0.0122894551604986,-0.8387284278869629
22937476088,459,22950000000,world,6.1681976318359375,0.0126598682254552,-0.8644371032714844
23004653061,460,23000000000,world,6.1399030685424805,0.0135778002440929,-0.8901233673095703
23036447998,461,23050000000,world,6.111227035522461,0.0128374733030796,-0.9159975051879884
23099178989,462,23100000000,world,6.081379890441895,0.0141291711479425,-0.9382195472717284
23136065572,463,23150000000,world,6.052854537963867,0.0148394303396344,-0.9626669883728028
23201882006,464,23200000000,world,6.02293586730957,0.0129804192110896,-0.9856910705566406
23231979503,465,23250000000,world,5.988929748535156,0.015274653211236,-1.0109233856201172
23302893197,466,23300000000,world,5.958045482635498,0.0156753882765769,-1.028977394104004
23331622410,467,23350000000,world,5.927435874938965,0.0146652515977621,-1.0515542030334473
23401541418,468,23400000000,world,5.897583961486816,0.012868482619524,-1.0746612548828125
23447994941,469,23450000000,world,5.866101264953613,0.0135656343773007,-1.095994472503662
23500009841,470,23500000000,world,5.8353424072265625,0.0144343739375472,-1.120619773864746
23537580917,471,23550000000,world,5.803472518920898,0.0124596264213323,-1.1375584602355957
23607383721,472,23600000000,world,5.7713470458984375,0.0137219857424497,-1.176161289215088
23638777925,473,23650000000,world,5.737921237945557,0.0124455317854881,-1.1941661834716797
23696127151,474,23700000000,world,5.704834938049316,0.0148502448573708,-1.217092514038086
23747621541,475,23750000000,world,5.670568943023682,0.0153049202635884,-1.2360572814941406
23806595076,476,23800000000,world,5.638273239135742,0.0132340583950281,-1.252274990081787
23834705013,477,23850000000,world,5.605262756347656,0.0165704060345888,-1.2715568542480469
23907693226,478,23900000000,world,5.570947647094727,0.0126726543530821,-1.2861614227294922
23934420501,479,23950000000,world,5.538301467895508,0.0125683788210153,-1.2996807098388672
23995993734,480,24000000000,world,5.503625869750977,0.0147767458111047,-1.3133525848388672
24052249359,481,24050000000,world,5.470337390899658,0.0151181602850556,-1.3230319023132324
24102289359,482,24100000000,world,5.432305335998535,0.015218423679471,-1.3314580917358398
24139818301,483,24150000000,world,5.39294958114624,0.0168719068169593,-1.3477449417114258
24209263733,484,24200000000,world,5.360201835632324,0.0159966498613357,-1.3560104370117188
24237202708,485,24250000000,world,5.32266902923584,0.0153396055102348,-1.3671517372131348
24301725780,486,24300000000,world,5.284341335296631,0.0193131864070892,-1.3732714653015137
24338544719,487,24350000000,world,5.239806175231934,0.0182372108101844,-1.383713722229004
24400482911,488,24400000000,world,5.205439567565918,0.0180841423571109,-1.3938512802124023
24435255068,489,24450000000,world,5.169123649597168,0.0167123228311538,-1.4046692848205566
24497430508,490,24500000000,world,5.134180068969727,0.0182666275650262,-1.4139766693115234
24530577516,491,24550000000,world,5.09849739074707,0.0177031923085451,-1.4234795570373535
24603735339,492,24600000000,world,5.059462547302246,0.0171239413321018,-1.4310240745544434
24636310108,493,24650000000,world,5.020731449127197,0.0191206559538841,-1.4346585273742676
24696083367,494,24700000000,world,4.979551315307617,0.0203551109880208,-1.4375576972961426
24725179489,495,24750000000,world,4.942348480224609,0.0198981165885925,-1.4412217140197754
24798258827,496,24800000000,world,4.902393341064453,0.0215267036110162,-1.4406371116638184
24827029128,497,24850000000,world,4.864758491516113,0.0203000269830226,-1.4424209594726562
24901255933,498,24900000000,world,4.8260273933410645,0.0214817877858877,-1.438148021697998
24925560296,499,24950000000,world,4.7875165939331055,0.020813250914216,-1.4361567497253418
25002964181,500,25000000000,world,4.751543998718262,0.016426146030426,-1.4336061477661133
25036722283,501,25050000000,world,4.712696075439453,0.0204080007970333,-1.4316349029541016
25091889462,502,25100000000,world,4.674705505371094,0.0191615000367164,-1.4280548095703125
25129768956,503,25150000000,world,4.637349605560303,0.0196177344769239,-1.425379753112793
25198056921,504,25200000000,world,4.600628852844238,0.020027307793498,-1.419950008392334
25227077914,505,25250000000,world,4.564375400543213,0.0193275604397058,-1.419642448425293
25297830903,506,25300000000,world,4.524890899658203,0.0195583757013082,-1.4162821769714355
25327904853,507,25350000000,world,4.482510566711426,0.0202324632555246,-1.4161195755004885
25400594598,508,25400000000,world,4.444511413574219,0.0220009572803974,-1.411144733428955
25435700416,509,25450000000,world,4.406920433044434,0.0206980649381876,-1.4080820083618164
25499663573,510,25500000000,world,4.37159538269043,0.021367497742176,-1.4048075675964355
25546657267,511,25550000000,world,4.331542491912842,0.0213231090456247,-1.404773235321045
25601564775,512,25600000000,world,4.298776149749756,0.0210558660328388,-1.4036264419555664
25645000844,513,25650000000,world,4.261383056640625,0.0213380083441734,-1.3992576599121094
25699038612,514,25700000000,world,4.225554943084717,0.0229616984724998,-1.398231029510498
25736948492,515,25750000000,world,4.188173770904541,0.0211867131292819,-1.3969180583953855
25804563955,516,25800000000,world,4.14851188659668,0.0222917180508375,-1.394540786743164
25837740439,517,25850000000,world,4.111686706542969,0.0197036229074001,-1.39258074760437
25901397555,518,25900000000,world,4.073781490325928,0.0200405605137348,-1.3909590244293213
25937817416,519,25950000000,world,4.037797927856445,0.0202099941670894,-1.387059450149536
26004227551,520,26000000000,world,4.000148773193359,0.0211096815764904,-1.383633375167847
26037697281,521,26050000000,world,3.962211608886719,0.0203773118555545,-1.383378028869629
26101721297,522,26100000000,world,3.9242711067199703,0.021888829767704,-1.3787822723388672
26135220771,523,26150000000,world,3.887784481048584,0.0203213896602392,-1.377758502960205
26218282101,524,26200000000,world,3.84952163696289,0.0206591784954071,-1.374500036239624
26246855655,525,26250000000,world,3.8129916191101074,0.021290123462677,-1.3713536262512207
26307670270,526,26300000000,world,3.774503231048584,0.0210857428610324,-1.3676013946533203
26333831975,527,26350000000,world,3.738365650177002,0.0214620642364025,-1.3645896911621094
26398686208,528,26400000000,world,3.699060678482056,0.0211343020200729,-1.3633155822753906
26452903653,529,26450000000,world,3.663085460662842,0.0214690007269382,-1.3605332374572754
26515960541,530,26500000000,world,3.6243059635162354,0.020252339541912,-1.358821153640747
26550398003,531,26550000000,world,3.587650775909424,0.0221622623503208,-1.3559966087341309
26606654344,532,26600000000,world,3.5507798194885254,0.0214825123548507,-1.3525550365447998
26638771370,533,26650000000,world,3.512436389923096,0.0220522265881299,-1.349480390548706
26698800672,534,26700000000,world,3.476306438446045,0.0210425090044736,-1.3463468551635742
26737056145,535,26750000000,world,3.437843084335327,0.0226514227688312,-1.3431031703948977
26798948462,536,26800000000,world,3.39961314201355,0.0224893130362033,-1.339479684829712
26838534727,537,26850000000,world,3.362679004669189,0.0226249285042285,-1.3365693092346191
26911816677,538,26900000000,world,3.3264684677124023,0.0225309077650308,-1.334099531173706
26946948653,539,26950000000,world,3.2874181270599365,0.0227361433207988,-1.3304450511932373
27004985806,540,27000000000,world,3.25032901763916,0.0226895455271005,-1.3282785415649414
27048019765,541,27050000000,world,3.212902545928955,0.0224704947322607,-1.3253905773162842
27113322385,542,27100000000,world,3.176422595977783,0.0226692706346511,-1.323861837387085
27144312671,543,27150000000,world,3.137361764907837,0.0225778743624687,-1.320140361785889
27205578668,544,27200000000,world,3.1010818481445312,0.0221804194152355,-1.3179068565368652
27239125595,545,27250000000,world,3.0621178150177,0.0236360188573598,-1.3162965774536133
27304935402,546,27300000000,world,3.0236239433288574,0.0229536388069391,-1.3120577335357666
27340368844,547,27350000000,world,2.98755407333374,0.0243075713515281,-1.3096954822540283
27407052904,548,27400000000,world,2.9499356746673584,0.0243286117911338,-1.3069968223571775
27426694400,549,27450000000,world,2.9146523475646973,0.023582998663187,-1.3036885261535645
27502276080,550,27500000000,world,2.874995708465576,0.0236717108637094,-1.3001294136047363
27535099655,551,27550000000,world,2.8383469581604004,0.0231994725763797,-1.2927491664886477
27598745187,552,27600000000,world,2.8000497817993164,0.0198310613632202,-1.2953181266784668
27640661607,553,27650000000,world,2.7643067836761475,0.0249198824167251,-1.2894487380981443
27695300830,554,27700000000,world,2.723203182220459,0.018494464457035,-1.2920832633972168
27731970339,555,27750000000,world,2.6825098991394043,0.0230519399046897,-1.288278102874756
27807453061,556,27800000000,world,2.6363587379455566,0.0195864215493202,-1.2742037773132324
27828053677,557,27850000000,world,2.599017143249512,0.0196055136620998,-1.2727172374725342
27905797350,558,27900000000,world,2.5617618560791016,0.021972294896841,-1.2642090320587158
27933601083,559,27950000000,world,2.524365901947021,0.0246403887867927,-1.2661330699920654
27995182998,560,28000000000,world,2.48707914352417,0.0230237767100334,-1.2632651329040527
28027977172,561,28050000000,world,2.4501774311065674,0.020945644006133,-1.2554125785827637
28095830666,562,28100000000,world,2.41499137878418,0.0222756266593933,-1.2543189525604248
28130807695,563,28150000000,world,2.373305559158325,0.0240603573620319,-1.2560937404632568
28206288178,564,28200000000,world,2.3360986709594727,0.0214376896619796,-1.2538809776306152
28247613658,565,28250000000,world,2.2983977794647217,0.0230089612305164,-1.2438881397247314
28302863106,566,28300000000,world,2.2602672576904297,0.0302919000387191,-1.2433192729949951
28347762319,567,28350000000,world,2.2213926315307617,0.029093537479639,-1.2433257102966309
28405094239,568,28400000000,world,2.18232536315918,0.025967177003622,-1.2409462928771973
28425778021,569,28450000000,world,2.144225597381592,0.0277692824602127,-1.2372748851776123
28512880110,570,28500000000,world,2.1071457862854004,0.0275241043418645,-1.235093355178833
28553589446,571,28550000000,world,2.06813383102417,0.026541318744421,-1.2330691814422607
28595830802,572,28600000000,world,2.03222131729126,0.0246287621557712,-1.2303096055984497
28631998431,573,28650000000,world,1.991631269454956,0.0287718456238508,-1.2282629013061523
28701113358,574,28700000000,world,1.955444931983948,0.030056482180953,-1.2253254652023315
28732797485,575,28750000000,world,1.9159740209579468,0.0267877671867609,-1.2267732620239258
28797355481,576,28800000000,world,1.8715347051620483,0.0342484563589096,-1.2259732484817505
28834220251,577,28850000000,world,1.8366787433624268,0.0306440442800521,-1.2244662046432495
28903199511,578,28900000000,world,1.795385479927063,0.0295672472566366,-1.2251460552215576
28932002216,579,28950000000,world,1.7587465047836304,0.0269238464534282,-1.2227554321289062
29000090937,580,29000000000,world,1.7204322814941406,0.0285263396799564,-1.2210043668746948
29035558025,581,29050000000,world,1.6859123706817627,0.028032511472702,-1.2134151458740234
29097572170,582,29100000000,world,1.6428334712982178,0.0261534918099641,-1.2118597030639648
29131891202,583,29150000000,world,1.6030633449554443,0.025760069489479,-1.2122000455856323
29201286823,584,29200000000,world,1.5692683458328247,0.0287802070379257,-1.1969205141067505
29233557542,585,29250000000,world,1.5292840003967283,0.0216925218701362,-1.1950719356536863
29298339412,586,29300000000,world,1.4974077939987185,0.02914609760046,-1.1801217794418335
29326192172,587,29350000000,world,1.4585816860198977,0.0291313380002975,-1.1731263399124146
29396167388,588,29400000000,world,1.4250595569610596,0.0290848910808563,-1.1597899198532104
29437356814,589,29450000000,world,1.394965887069702,0.0268185716122388,-1.1492149829864502
29500826804,590,29500000000,world,1.360177516937256,0.0294849574565887,-1.1274999380111694
29544678431,591,29550000000,world,1.3283191919326782,0.0316688939929008,-1.1123006343841553
29597482239,592,29600000000,world,1.286571741104126,0.0340791493654251,-1.1031131744384766
29627857996,593,29650000000,world,1.2540110349655151,0.039195280522108,-1.0727169513702393
29699335371,594,29700000000,world,1.2188701629638672,0.0313895083963871,-1.047360897064209
29723552840,595,29750000000,world,1.1827173233032229,0.0321841388940811,-1.030613660812378
29798742109,596,29800000000,world,1.152103304862976,0.0288534294813871,-1.0077300071716309
29829919800,597,29850000000,world,1.12169086933136,0.0288732498884201,-0.9851186275482178
29903367353,598,29900000000,world,1.094683289527893,0.0271429810672998,-0.9607887864112854
29925970699,599,29950000000,world,1.0638084411621094,0.0280551221221685,-0.936008870601654
29996279264,600,30000000000,world,1.0277276039123535,0.0284021962434053,-0.9197725057601928
30027847264,601,30050000000,world,0.9997808933258056,0.0316122882068157,-0.8963978886604309
30089112594,602,30100000000,world,0.9751850962638856,0.0341698080301284,-0.8787027597427368
30126568813,603,30150000000,world,0.9472178816795348,0.0342646092176437,-0.8578990697860718
30199648396,604,30200000000,world,0.914513885974884,0.0330329313874244,-0.8332613110542297
30222831309,605,30250000000,world,0.882532000541687,0.0390714071691036,-0.8131304383277893
30292679874,606,30300000000,world,0.8484086990356445,0.0348496548831462,-0.7909775376319885
30333782477,607,30350000000,world,0.8203018307685852,0.0375658571720123,-0.7691351175308228
30398966948,608,30400000000,world,0.7849117517471313,0.0402472242712974,-0.7460026741027832
30425944109,609,30450000000,world,0.7564334273338318,0.039235346019268,-0.719322919845581
30492101070,610,30500000000,world,0.7260035872459412,0.0391170568764209,-0.7015835046768188
30523360969,611,30550000000,world,0.6960452198982239,0.0384319983422756,-0.6788791418075562
30595368202,612,30600000000,world,0.6666886210441589,0.039699662476778,-0.6555265188217163
30631281012,613,30650000000,world,0.6295678615570068,0.0388924926519393,-0.6323764324188232
30697401705,614,30700000000,world,0.5974626541137695,0.0406817011535167,-0.6101307272911072
30731032732,615,30750000000,world,0.5675832033157349,0.0407610274851322,-0.5885452032089233
30799329091,616,30800000000,world,0.5375382900238037,0.0406014323234558,-0.5667294859886169
30826280885,617,30850000000,world,0.5079612135887146,0.0438504330813884,-0.5370902419090271
30903788683,618,30900000000,world,0.479961633682251,0.0409624613821506,-0.5190384387969971
30941242845,619,30950000000,world,0.4475565254688263,0.0413130745291709,-0.4959463775157928
30996409831,620,31000000000,world,0.4164478182792663,0.041434921324253,-0.4733888506889343
31035889660,621,31050000000,world,0.3859332501888275,0.0431972965598106,-0.4519988298416137
31104486494,622,31100000000,world,0.3527453243732452,0.0426771081984043,-0.4309888184070587
31133198294,623,31150000000,world,0.3221238851547241,0.0425261445343494,-0.4089221656322479
31197341552,624,31200000000,world,0.2885295450687408,0.0426724292337894,-0.3862834572792053
31229202522,625,31250000000,world,0.2595213651657104,0.044011928141117,-0.3624938726425171
31302436254,626,31300000000,world,0.2294483929872512,0.0427075549960136,-0.3383148312568664
31327280861,627,31350000000,world,0.2049190551042556,0.042400375008583,-0.3161079585552215
31400508372,628,31400000000,world,0.1727121174335479,0.0433275736868381,-0.28965824842453
31433475275,629,31450000000,world,0.14899343252182,0.0431384295225143,-0.2549415230751037
31496493165,630,31500000000,world,0.1213644444942474,0.043665587902069,-0.2273402959108352
31526950718,631,31550000000,world,0.0951678901910781,0.0436619855463504,-0.2005269527435302
31592223445,632,31600000000,world,0.0697568655014038,0.0423698611557483,-0.1720150858163833
31633738692,633,31650000000,world,0.0427475646138191,0.0426870770752429,-0.1432884335517883
31698106244,634,31700000000,world,0.0221636965870857,0.0432829931378364,-0.1183334290981292
31727254412,635,31750000000,world,-0.0059074023738503,0.0423373579978942,-0.0884488597512245
31802436473,636,31800000000,world,-0.0507866367697715,0.0288386140018701,-0.0518175289034843
31835085274,637,31850000000,world,-0.0712345838546752,0.0294683426618576,-0.0197712965309619
31898753871,638,31900000000,world,-0.0927157253026962,0.0296225938946008,0.01051193382591
31934935807,639,31950000000,world,-0.1135435551404953,0.0283145662397146,0.040351927280426
32004190320,640,32000000000,world,-0.1321960687637329,0.0274996273219585,0.0734152942895889
32027128626,641,32050000000,world,-0.1521284878253936,0.0284644290804862,0.1054109632968902
32131795259,642,32100000000,world,-0.1698542088270187,0.0266745314002037,0.1400977075099945
32149804258,643,32150000000,world,-0.1856285482645034,0.0249404422938823,0.1708265841007232
32220390991,644,32200000000,world,-0.2005426287651062,0.0294253826141357,0.2078608870506286
32265159253,645,32250000000,world,-0.2146949023008346,0.0268562510609626,0.2422530204057693
32299028714,646,32300000000,world,-0.2316188216209411,0.0291616395115852,0.286723256111145
32332867020,647,32350000000,world,-0.2447347640991211,0.030515955761075,0.321035087108612
32393509347,648,32400000000,world,-0.2547873556613922,0.0307772550731897,0.3608633875846863
32440112503,649,32450000000,world,-0.2615823447704315,0.0266929306089878,0.3881568312644958
32506218197,650,32500000000,world,-0.2685525715351105,0.0303215887397527,0.4319756925106048
32536089363,651,32550000000,world,-0.2733851075172424,0.0298117324709892,0.4660112261772156
32589074949,652,32600000000,world,-0.2838615477085113,0.0281611997634172,0.5105363726615906
32621465881,653,32650000000,world,-0.2880991697311401,0.0271019544452428,0.5510151386260986
32700045316,654,32700000000,world,-0.2892846167087555,0.0282806511968374,0.5856364369392395
32729523068,655,32750000000,world,-0.289955198764801,0.02614077180624,0.6199088096618652
32796838092,656,32800000000,world,-0.2174516171216964,-0.0018178727477788,0.729918360710144
32833378848,657,32850000000,world,-0.2134433984756469,-0.0031062101479619,0.765195906162262
32907929304,658,32900000000,world,-0.2075484842061996,-0.0020889085717499,0.8073100447654724
32952532796,659,32950000000,world,-0.2043494582176208,0.0003193328448105,0.8463479280471802
33001635691,660,33000000000,world,-0.1956533342599868,-0.0022850148379802,0.8783100843429565
33034075970,661,33050000000,world,-0.1877482384443283,-0.001058435998857,0.9144763350486756
33100992068,662,33100000000,world,-0.1769744306802749,-0.0036926923785358,0.9497827887535096
33134019851,663,33150000000,world,-0.1658478081226349,-0.0025442158803343,0.985099196434021
33208090782,664,33200000000,world,-0.154237300157547,-0.0019921953789889,1.0251582860946655
33235902528,665,33250000000,world,-0.1467527598142624,-0.0030676634050905,1.0534965991973877
33304932895,666,33300000000,world,-0.1266027390956878,0.0014363101217895,1.0946013927459717
33336363411,667,33350000000,world,-0.1110368072986602,-0.0012572002597153,1.1258363723754885
