%time,seq,stamp,frame_id,child_frame_id,x,y,z
0,0,0,world,base_link,0.0,0.0,0.0
19945853,1,20000000,world,base_link,7.105427357601002e-15,-8.881784197001252e-16,-9.519815491465522e-14
45332575,2,40000000,world,base_link,-1.7763568394002505e-14,8.881784197001252e-16,1.8850199179354377e-13
59640118,3,60000000,world,base_link,-1.0658141036401503e-14,-8.881784197001252e-16,1.078026556911027e-13
81761806,4,80000000,world,base_link,-3.552713678800501e-15,-8.881784197001252e-16,1.840194663316197e-14
108289768,5,100000000,world,base_link,3.552713678800501e-15,-2.6645352591003757e-15,-7.579700755933061e-14
141566834,6,120000000,world,base_link,-7.815970093361102e-14,-8.881784197001252e-16,6.779021788361206e-13
141617289,7,140000000,world,base_link,-1.4210854715202004e-14,-8.881784197001252e-16,1.2500070423193677e-13
171804938,8,160000000,world,base_link,-7.105427357601002e-15,-1.7763568394002505e-15,3.660266534311063e-14
214183023,9,180000000,world,base_link,0.0,-3.552713678800501e-15,-5.659708812721931e-14
214216879,10,200000000,world,base_link,1.4210854715202004e-14,-5.329070518200751e-15,-1.5519877050174102e-13
274172126,11,220000000,world,base_link,-2.1316282072803006e-14,-2.6645352591003757e-15,1.4179976637329617e-13
274271732,12,240000000,world,base_link,-1.4210854715202004e-14,-3.552713678800501e-15,5.4799914606107336e-14
274286485,13,260000000,world,base_link,-3.552713678800501e-15,-4.440892098500626e-15,-3.749778265671466e-14
324050178,14,280000000,world,base_link,3.552713678800501e-15,-5.329070518200751e-15,-1.3499965034746708e-13
324070307,15,300000000,world,base_link,-2.4868995751603507e-14,-4.440892098500626e-15,1.5800208363891954e-13
345088604,16,320000000,world,base_link,-1.7763568394002505e-14,-4.440892098500626e-15,7.270226087818799e-14
345114679,17,340000000,world,base_link,0.0,-5.329070518200751e-15,-1.8599705109423326e-14
394071565,18,360000000,world,base_link,0.0,-7.105427357601002e-15,-1.149982886694545e-13
394115730,19,380000000,world,base_link,-2.4868995751603507e-14,-4.440892098500626e-15,1.7330234469703498e-13
444119407,20,400000000,world,base_link,-1.4210854715202004e-14,-6.217248937900877e-15,9.030276526544867e-14
444143183,21,420000000,world,base_link,-7.105427357601002e-15,-6.217248937900877e-15,0.0
494176726,22,440000000,world,base_link,-3.552713678800501e-15,-7.105427357601002e-15,-9.529876887626187e-14
494212901,23,460000000,world,base_link,-2.4868995751603507e-14,-5.329070518200751e-15,1.8850199179354377e-13
494232138,24,480000000,world,base_link,-1.7763568394002505e-14,-7.105427357601002e-15,1.078998002057574e-13
544294411,25,500000000,world,base_link,-7.105427357601002e-15,-7.993605777301127e-15,1.8502560594768624e-14
544327303,26,520000000,world,base_link,0.0,-9.769962616701378e-15,-7.569986304467591e-14
563612234,27,540000000,world,base_link,-7.815970093361102e-14,-7.993605777301127e-15,6.779021788361206e-13
563635233,28,560000000,world,base_link,-1.4210854715202004e-14,-7.993605777301127e-15,1.2510131819354342e-13
604345062,29,580000000,world,base_link,-3.552713678800501e-15,-8.881784197001252e-15,3.6800423819371986e-14
604382809,30,600000000,world,base_link,3.552713678800501e-15,-9.769962616701378e-15,-5.639932965095795e-14
654018738,31,620000000,world,base_link,2.1316282072803006e-14,-1.1546319456101628e-14,-1.5509815654013437e-13
658636998,32,640000000,world,base_link,-1.0658141036401503e-14,-9.769962616701378e-15,1.4190038033490282e-13
704102985,33,660000000,world,base_link,3.552713678800501e-15,-9.769962616701378e-15,5.490052856771399e-14
704139334,34,680000000,world,base_link,1.4210854715202004e-14,-1.1546319456101628e-14,-3.7300024180453306e-14
704177886,35,700000000,world,base_link,2.4868995751603507e-14,-1.2434497875801753e-14,-1.3479842242425377e-13
754107187,36,720000000,world,base_link,0.0,-1.0658141036401503e-14,1.581026976005262e-13
754145361,37,740000000,world,base_link,1.0658141036401503e-14,-1.1546319456101628e-14,7.280287483979464e-14
775911386,38,760000000,world,base_link,2.4868995751603507e-14,-1.1546319456101628e-14,-1.849909114781667e-14
807711989,39,780000000,world,base_link,2.842170943040401e-14,-1.3322676295501878e-14,-1.1479706074624119e-13
854048228,40,800000000,world,base_link,1.0658141036401503e-14,-1.1546319456101628e-14,1.7340295865864164e-13
854081123,41,820000000,world,base_link,1.7763568394002505e-14,-1.2434497875801753e-14,9.050052374171003e-14
854152690,42,840000000,world,base_link,2.842170943040401e-14,-1.3322676295501878e-14,2.0122792321330962e-16
914114779,43,860000000,world,base_link,3.552713678800501e-14,-1.4210854715202004e-14,-9.509754095304856e-14
914158914,44,880000000,world,base_link,1.7763568394002505e-14,-1.2434497875801753e-14,1.8860260575515042e-13
914205815,45,900000000,world,base_link,2.4868995751603507e-14,-1.4210854715202004e-14,1.0800041416736406e-13
974257922,46,920000000,world,base_link,3.552713678800501e-14,-1.4210854715202004e-14,1.860317455637528e-14
974306906,47,940000000,world,base_link,4.618527782440651e-14,-1.5987211554602254e-14,-7.559924908306925e-14
974361325,48,960000000,world,base_link,-2.842170943040401e-14,-1.4210854715202004e-14,6.780027927977272e-13
1024190409,49,980000000,world,base_link,3.552713678800501e-14,-1.4210854715202004e-14,1.2520193215515008e-13
1024221112,50,1000000000,world,base_link,4.618527782440651e-14,-1.5987211554602254e-14,3.6800423819371986e-14
1045209939,51,1020000000,world,base_link,0.007949571195368321,0.006458668484914831,-5.498509980661481e-11
1045237671,52,1040000000,world,base_link,0.019633159115731047,0.01595056681273732,-5.502389863187851e-11
1104245493,53,1060000000,world,base_link,0.03132203982149662,0.025447004331178746,-5.5023999245840116e-11
1104300819,54,1080000000,world,base_link,0.04301093124088595,0.034943439360190176,-5.5023999245840116e-11
1104360474,55,1100000000,world,base_link,0.0546998383898476,0.044439855276800166,-5.502409985980172e-11
1154222131,56,1120000000,world,base_link,0.06638876198666921,0.053936251197610474,-5.502409985980172e-11
1160148146,57,1140000000,world,base_link,0.07807770208263065,0.06343262706022124,-5.502409985980172e-11
1204085614,58,1160000000,world,base_link,0.08976665868155465,0.07292898285989668,-5.502419700431638e-11
1204115600,59,1180000000,world,base_link,0.10145563178393502,0.0824253185959618,-5.5024297618277984e-11
1204169613,60,1200000000,world,base_link,0.11314462139004888,0.09192163426803646,-5.5024297618277984e-11
1264126776,61,1220000000,world,base_link,0.12483362750014138,0.10141792987575737,-5.5024297618277984e-11
1264146828,62,1240000000,world,base_link,0.13652265011443632,0.11091420541876396,-5.5024297618277984e-11
1299865379,63,1260000000,world,base_link,0.1482116892331966,0.12041046089669472,-5.502439823223959e-11
1299914959,64,1280000000,world,base_link,0.15990074485667094,0.1299066963091846,-5.502439823223959e-11
1344193917,65,1300000000,world,base_link,0.17158981698506537,0.1394029116558766,-5.50244988462012e-11
1344225047,66,1320000000,world,base_link,0.183278905618657,0.14889910693641006,-5.50244988462012e-11
1344242189,67,1340000000,world,base_link,0.19496801075768033,0.15839528215041998,-5.50244988462012e-11
1394409267,68,1360000000,world,base_link,0.20665713240238048,0.16789143729754485,-5.5024599460162804e-11
1394463903,69,1380000000,world,base_link,0.2183462705529884,0.17738757237742586,-5.5024599460162804e-11
1406130075,70,1400000000,world,base_link,0.23003542520974563,0.18688368738969885,-5.5024599460162804e-11
1448998642,71,1420000000,world,base_link,0.2417245963729009,0.19637978233400588,-5.502470007412441e-11
1494097106,72,1440000000,world,base_link,0.25341378404270287,0.20587585720998014,-5.502470007412441e-11
1494120822,73,1460000000,world,base_link,0.26510298821939315,0.2153719120172628,-5.5024797218639065e-11
1494125971,74,1480000000,world,base_link,0.2767922089032062,0.22486794675549415,-5.5024797218639065e-11
1554086891,75,1500000000,world,base_link,0.2884814460943872,0.23436396142431093,-5.502489783260067e-11
1554122779,76,1520000000,world,base_link,0.30017069979318123,0.24385995602335164,-5.502489783260067e-11
1570927341,77,1540000000,world,base_link,0.31185996999982635,0.2533559305522557,-5.502489783260067e-11
1570957938,78,1560000000,world,base_link,0.32354925671457835,0.2628518850106598,-5.502489783260067e-11
1614265305,79,1580000000,world,base_link,0.33523855993767526,0.2723478193982043,-5.502499844656228e-11
1614295232,80,1600000000,world,base_link,0.3469278796693551,0.28184373371452676,-5.5025099060523885e-11
1674169110,81,1620000000,world,base_link,0.35861721590985596,0.2913396279592657,-5.5025099060523885e-11
1674196838,82,1640000000,world,base_link,0.37030656865943357,0.3008355021320588,-5.5025099060523885e-11
1734152165,83,1660000000,world,base_link,0.3819959379183153,0.31033135623254804,-5.502519967448549e-11
1734219093,84,1680000000,world,base_link,0.3936853236867499,0.31982719026036577,-5.502519967448549e-11
1734239127,85,1700000000,world,base_link,0.4053747259649825,0.32932300421515404,-5.502529681900015e-11
1734319465,86,1720000000,world,base_link,0.41706414475325815,0.33881879809655224,-5.502529681900015e-11
1784105882,87,1740000000,world,base_link,0.42875358005181496,0.3483145719041989,-5.502529681900015e-11
1794021353,88,1760000000,world,base_link,0.44044303186090517,0.35781032563772985,-5.5025397432961753e-11
1844164921,89,1780000000,world,base_link,0.45229664683339976,0.367104806905056,-5.5153298594845523e-11
1844210776,90,1800000000,world,base_link,0.46413008837235026,0.37641814753872804,-5.548139725419787e-11
1844276682,91,1820000000,world,base_link,0.47606481183709803,0.3856020727014178,-5.58043992959778e-11
1904073795,92,1840000000,world,base_link,0.4881335892804195,0.39461198024605526,-5.612369943786e-11
1904094652,93,1860000000,world,base_link,0.5003364159777952,0.4034428789501314,-5.643899930740659e-11
1904106397,94,1880000000,world,base_link,0.5126709443373443,0.41209268350637185,-5.6745799031920896e-11
1904119763,95,1900000000,world,base_link,0.525134640142582,0.42055954890129676,-5.704419922536452e-11
1954095101,96,1920000000,world,base_link,0.537724932593683,0.4288416805033757,-5.733439764621373e-11
1954123913,97,1940000000,world,base_link,0.5504392251733812,0.43693732084463743,-5.761620000543921e-11
1989832892,98,1960000000,world,base_link,0.5632748968714658,0.4448447490008922,-5.788979712262332e-11
1993525767,99,1980000000,world,base_link,0.5762293027460146,0.45256228086388184,-5.815509879214531e-11
2044186179,100,2000000000,world,base_link,0.5892997744431483,0.4600882694703641,-5.841219868907288e-11
2044249057,101,2020000000,world,base_link,0.6024836207181998,0.46742110532861325,-5.866459748538055e-11
2104090483,102,2040000000,world,base_link,0.6157781279614518,0.4745592167377133,-5.891009902114774e-11
2104117290,103,2060000000,world,base_link,0.6291792494161896,0.4815022962249387,-7.267698977353465e-10
2164224584,104,2080000000,world,base_link,0.6426776680032589,0.4883072480264934,2.3277795536021106e-06
2164249837,105,2100000000,world,base_link,0.6562838235026263,0.49490646286191176,3.314377799989998e-09
2164302342,106,2120000000,world,base_link,0.6698963042208632,0.5014735380524593,-1.5424801359797957e-07
2164316294,107,2140000000,world,base_link,0.683582652288603,0.5078474063703329,8.993781601407402e-09
2224221741,108,2160000000,world,base_link,0.6973293238278586,0.5141283535199745,-4.142993967799075e-06
2224247491,109,2180000000,world,base_link,0.7110706590944709,0.5204039476254199,-6.906839683518129e-11
2224261152,110,2200000000,world,base_link,0.7248169887057223,0.5266816208859728,-6.90573986883436e-11
2224290162,111,2220000000,world,base_link,0.7385632315532327,0.5329589556895717,-6.90582001305895e-11
2284095609,112,2240000000,world,base_link,0.7523095171443046,0.5392362013566672,-6.90582001305895e-11
2291971747,113,2260000000,world,base_link,0.7660558414650609,0.5455133666415346,-6.905829727510415e-11
2334345867,114,2280000000,world,base_link,0.7798022042220083,0.5517904521524404,-6.905829727510415e-11
2334383810,115,2300000000,world,base_link,0.7935486053945553,0.5580674579309548,-6.905839788906576e-11
2334404564,116,2320000000,world,base_link,0.8072950449814229,0.5643443839786384,-6.905839788906576e-11
2394159409,117,2340000000,world,base_link,0.821041522982668,0.5706212302942317,-6.905839788906576e-11
2394217169,118,2360000000,world,base_link,0.8347880393984468,0.5768979968762791,-6.905849850302737e-11
2394236040,119,2380000000,world,base_link,0.8485345942289264,0.5831746837233052,-6.905849850302737e-11
2444245854,120,2400000000,world,base_link,0.8622811874742844,0.5894512908338383,-6.905859911698897e-11
2444305047,121,2420000000,world,base_link,0.8760278191346735,0.5957278182064041,-6.905859911698897e-11
2445088589,122,2440000000,world,base_link,0.8897744892102644,0.6020042658395308,-6.905869973095058e-11
2479433789,123,2460000000,world,base_link,0.9036224371574768,0.6080687169637997,-6.908739899613714e-11
2524198838,124,2480000000,world,base_link,0.9174491864902983,0.6141745625182322,-1.2953249098335284e-08
2524231243,125,2500000000,world,base_link,0.931341823991719,0.6201637195289109,-5.885806980687747e-10
2574234457,126,2520000000,world,base_link,0.9453148572046715,0.6260932503607703,-2.5758341479914515e-07
2574290239,127,2540000000,world,base_link,0.9593823114264168,0.6318329010568409,-6.873667042998216e-06
2574304454,128,2560000000,world,base_link,0.9735116566624598,0.6373087222932696,-5.346627601199999e-06
2624160566,129,2580000000,world,base_link,0.9877143676389117,0.6425722195985752,-8.248720679900068e-06
2624199926,130,2600000000,world,base_link,1.0019812953068339,0.6476315590533916,-7.099151995426656e-10
2638579908,131,2620000000,world,base_link,1.016339348919054,0.6525253634188317,-6.532590493598528e-06
2639469363,132,2640000000,world,base_link,1.0307107955981998,0.6572606743821234,7.178191196100664e-06
2684078858,133,2660000000,world,base_link,1.0451538153679998,0.6618260987012778,6.4778826397021705e-06
2734027595,134,2680000000,world,base_link,1.0596801936434659,0.666248953799955,-4.076926661097241e-06
2734046331,135,2700000000,world,base_link,1.0742918512310204,0.6704122320223735,-7.2795490791977e-06
2784256352,136,2720000000,world,base_link,1.0888882207637778,0.6745523139128649,-4.687041806897968e-06
2784290773,137,2740000000,world,base_link,1.1035543472485791,0.6784424649951326,-5.7421133720994555e-06
2834176220,138,2760000000,world,base_link,1.1182458127524093,0.6822817006170512,-1.143158554199608e-06
2834241923,139,2780000000,world,base_link,1.1329293090406551,0.6861093128164883,-6.0166697593982965e-06
2834273005,140,2800000000,world,base_link,1.1476255858792683,0.6899330953979987,-2.8319328097825558e-08
2834335649,141,2820000000,world,base_link,1.1623097935147086,0.6937564732795805,1.3451254990068384e-07
2884166556,142,2840000000,world,base_link,1.1770088009874513,0.6975919127450183,6.40417284029915e-08
2887921912,143,2860000000,world,base_link,1.1916926585838006,0.7014126360098638,2.9311058701714243e-08
2944047331,144,2880000000,world,base_link,1.206389783208369,0.7052467882020732,-1.6702648597544112e-08
2944065491,145,2900000000,world,base_link,1.2210739304946046,0.7090671164189573,3.014381990198989e-08
2944073277,146,2920000000,world,base_link,1.2357840317805007,0.712902003998451,-8.062573137398305e-06
2994204705,147,2940000000,world,base_link,1.2504628018380437,0.7167279015294579,-5.903843529199426e-06
2994256414,148,2960000000,world,base_link,1.2651553608024635,0.7205538423349713,-2.0960994598986926e-06
3005669450,149,2980000000,world,base_link,1.2798436740115378,0.7243777206808453,-4.080835855096998e-06
3005699486,150,3000000000,world,base_link,1.2945369878764303,0.7282098980518512,-3.6823688302975444e-06
3054337475,151,3020000000,world,base_link,1.3092252893039564,0.7320309879682636,-4.041758069898288e-06
3104268848,152,3040000000,world,base_link,1.3239217674681534,0.7358559987907434,6.234073110164551e-08
3104304554,153,3060000000,world,base_link,1.338609669507317,0.7396781718454477,3.013705830029467e-08
3154083504,154,3080000000,world,base_link,1.3533030500467582,0.7435098834395273,1.293698766030582e-07
3154105093,155,3100000000,world,base_link,1.3679923864125811,0.7473298246164992,3.006089250093269e-08
3154127317,156,3120000000,world,base_link,1.382684195181021,0.7511615562539857,1.2762291900017542e-07
3154141425,157,3140000000,world,base_link,1.39737441608845,0.7549812955650426,3.0129293900060805e-08
3204120600,158,3160000000,world,base_link,1.4121493849942155,0.7586129343028718,-1.480450150598972e-06
3204150978,159,3180000000,world,base_link,1.4269016508438703,0.7622433652853919,-1.7149529712989775e-10
3226671984,160,3200000000,world,base_link,1.441698787182169,0.7656644071568772,-1.7285549727685812e-10
3226696488,161,3220000000,world,base_link,1.4565441895143998,0.7690239557609697,2.997229930218337e-08
3274142756,162,3240000000,world,base_link,1.4714401420029688,0.7720892039542608,3.511588502619345e-09
3274178717,163,3260000000,world,base_link,1.4863770801599365,0.7749544238579693,-5.090259984352752e-10
3324296823,164,3280000000,world,base_link,1.5013582878467773,0.7776118297391941,-4.68836899858438e-10
3324360840,165,3300000000,world,base_link,1.5163356554660439,0.7802843924493859,4.522727900524437e-09
3374096941,166,3320000000,world,base_link,1.5313651861096282,0.782691354376368,3.009137760148772e-08
3374134923,167,3340000000,world,base_link,1.5464093315885634,0.7850471126323582,3.014291240222011e-08
3434162891,168,3360000000,world,base_link,1.561452779661355,0.7873989193324071,3.0624580000387924e-08
3434200671,169,3380000000,world,base_link,1.5764988759041287,0.7897509955518691,3.0039181100893764e-08
3434222726,170,3400000000,world,base_link,1.591543196237346,0.7921041278752039,3.01461977013362e-08
3434238834,171,3420000000,world,base_link,1.6065878849211437,0.794454876160323,6.20787552023383e-08
3484048195,172,3440000000,world,base_link,1.621633529413124,0.7968078399992145,1.761770841018917e-07
3488997783,173,3460000000,world,base_link,1.636677639066491,0.7991552236675501,3.0094318401868714e-08
3534023875,174,3480000000,world,base_link,1.6517219591464745,0.8015050253314717,2.9147667300610802e-08
3534049691,175,3500000000,world,base_link,1.6667683152628143,0.8038547427538196,2.9208677899961177e-08
3534058386,176,3520000000,world,base_link,1.681812478665293,0.8062038612840565,3.009229910047595e-08
3594193978,177,3540000000,world,base_link,1.6968573349390788,0.8085518724042595,3.015208310114259e-08
3594239135,178,3560000000,world,base_link,1.7119024263691252,0.8109005544222612,6.208115320080476e-08
3594390662,179,3580000000,world,base_link,1.726948472029111,0.8132514277462342,1.7621089030278592e-07
3644278319,180,3600000000,world,base_link,1.7419929848480926,0.8155967152901802,3.0094348301562546e-08
3644324279,181,3620000000,world,base_link,1.7570377076720867,0.8179444227798651,2.914761320152448e-08
3653662142,182,3640000000,world,base_link,1.7720844657522505,0.8202920457155995,2.920829320074425e-08
3695497866,183,3660000000,world,base_link,1.7871290311369137,0.822639067721517,3.009232570072573e-08
3744264879,184,3680000000,world,base_link,1.8021742905587104,0.82498498485712,3.015209050147294e-08
3744289350,185,3700000000,world,base_link,1.8172197840748012,0.827331573289892,6.208113570091434e-08
3744314129,186,3720000000,world,base_link,1.8322662298603802,0.8296803483554109,1.7715958810018972e-07
3794191869,187,3740000000,world,base_link,1.847311146968181,0.8320235437516503,3.0094377500428093e-08
3794236706,188,3760000000,world,base_link,1.8623562719323559,0.8343691580004711,2.9147558800596274e-08
3798984396,189,3780000000,world,base_link,1.87740343152781,0.8367146872107387,2.9207908102540925e-08
3824908013,190,3800000000,world,base_link,1.8924483984603135,0.8390596134566328,3.009235240158947e-08
3884262771,191,3820000000,world,base_link,1.9074940605938586,0.8414034373698946,3.015209790180329e-08
3884313648,192,3840000000,world,base_link,1.9225399557609713,0.8437479329781379,6.208111799979599e-08
3884345644,193,3860000000,world,base_link,1.9375868012375754,0.8460946105481915,1.7810782720201201e-07
3934117235,194,3880000000,world,base_link,1.9526321221976737,0.8484357145566026,3.00944067999076e-08
3934147904,195,3900000000,world,base_link,1.967677648867184,0.8507792363249225,2.914750460089599e-08
3946002574,196,3920000000,world,base_link,1.982725209543382,0.8531226725703664,2.920752290025419e-08
3946019988,197,3940000000,world,base_link,1.99777057758849,0.8554655038179453,3.0092379001839253e-08
3994091055,198,3960000000,world,base_link,2.0128166419997306,0.8578072352721522,3.015210510090571e-08
3994117856,199,3980000000,world,base_link,2.0278629383879725,0.8601496388253729,6.208110030214709e-08
4044151356,200,4000000000,world,base_link,2.0429101831218084,0.8624942196631089,1.7905560630027129e-07
4044191072,201,4020000000,world,base_link,2.0579559075063827,0.8648332330601196,3.00944360022426e-08
4094238722,202,4040000000,world,base_link,2.0730018354582107,0.8671746631318547,2.9147450401195707e-08
4094358949,203,4060000000,world,base_link,2.088049796791978,0.8695160071961103,2.920713799980934e-08
4094399261,204,4080000000,world,base_link,2.103095565518892,0.8718567442158403,3.0092405702702996e-08
4144326649,205,4100000000,world,base_link,2.118142031788068,0.8741963840040929,3.015211250123606e-08
4144387115,206,4120000000,world,base_link,2.133188728974332,0.876536696287455,6.208108260102874e-08
4147091464,207,4140000000,world,base_link,2.1482363725319047,0.8788791811584966,1.800029790013924e-07
4190301657,208,4160000000,world,base_link,2.1632824999136915,0.8812161047237073,3.009446510049418e-08
4234071302,209,4180000000,world,base_link,2.1783288287184597,0.8835554438721269,2.9147396302109385e-08
4234096860,210,4200000000,world,base_link,2.193377190276941,0.8858946965210821,2.9206753002219976e-08
4234100978,211,4220000000,world,base_link,2.208423359251171,0.8882333400780409,3.0092432202338815e-08
4294373206,212,4240000000,world,base_link,2.2234702269429967,0.8905708889630786,3.0152119700338487e-08
4294440201,213,4260000000,world,base_link,2.238517324493003,0.8929091107391098,6.208106470215191e-08
4294454892,214,4280000000,world,base_link,2.2535653664404087,0.8952495004083545,1.809498890031902e-07
4344164000,215,4300000000,world,base_link,2.2686118963835185,0.8975843349035086,3.009449430282918e-08
4344777467,216,4320000000,world,base_link,2.2836586256070284,0.8999215838908539,2.9147342203023063e-08
4394096072,217,4340000000,world,base_link,2.2987073869563304,0.902258745887007,2.9206367900547203e-08
4394148572,218,4360000000,world,base_link,2.31375395574333,0.9045952967447661,3.0092458701974634e-08
4394158381,219,4380000000,world,base_link,2.3288012244229357,0.9069307554887365,3.015212690291036e-08
4444259173,220,4400000000,world,base_link,2.3438487219029547,0.9092668875193501,6.20810465014332e-08
4448890277,221,4420000000,world,base_link,2.3588971618068513,0.9116051827512051,1.8189630010198576e-07
4494224566,222,4440000000,world,base_link,2.3739440938757888,0.9139379289373597,3.0094523401080764e-08
4494261599,223,4460000000,world,base_link,2.3889912230843713,0.9162730885252,2.9147288301695218e-08
4494269501,224,4480000000,world,base_link,2.404040383791152,0.9186081606304288,2.9205982802343877e-08
4544219859,225,4500000000,world,base_link,2.4190873519568257,0.9209426195520001,3.0092485302224414e-08
4544269659,226,4520000000,world,base_link,2.434135021189828,0.9232759889164948,3.015213400139882e-08
4546042895,227,4540000000,world,base_link,2.4491829181665565,0.9256100319630907,6.208102820010053e-08
4583957616,228,4560000000,world,base_link,2.4642317555939712,0.9279462335214532,1.828422359004267e-07
4634043306,229,4580000000,world,base_link,2.479279089353682,0.9302768921592826,3.009455259994631e-08
4634064526,230,4600000000,world,base_link,2.494326618114002,0.9326099631088365,2.9147234500981334e-08
4634076645,231,4620000000,world,base_link,2.5093761777452386,0.9349429460846492,2.9205597700671104e-08
4684058917,232,4640000000,world,base_link,2.5244235448558676,0.93727531383262,3.0092511801860233e-08
4684089766,233,4660000000,world,base_link,2.5394716142082885,0.9396065945788372,3.0152141099887286e-08
4684098347,234,4680000000,world,base_link,2.5545199102487928,0.941938549402412,6.208100980162334e-08
4734241622,235,4700000000,world,base_link,2.5695691447671045,0.9442726580506937,1.8378770540172784e-07
4734249947,236,4720000000,world,base_link,2.5846168797830096,0.9466012299004376,3.0094581701667344e-08
4747112656,237,4740000000,world,base_link,2.5996648076621724,0.9489322129724522,2.914718080088141e-08
4768998530,238,4760000000,world,base_link,2.6147147657852905,0.9512631075798756,2.9205212401239855e-08
4824164410,239,4780000000,world,base_link,2.6297625314076143,0.9535933849163447,3.009253830149605e-08
4884289013,240,4800000000,world,base_link,2.64481100044587,0.955922577805012,3.01521482018452e-08
4884323647,241,4820000000,world,base_link,2.6598596951176603,0.9582524451660923,6.208099110130427e-08
4884381473,242,4840000000,world,base_link,2.6749093262946992,0.9605844616672261,1.8473270890079219e-07
4884392258,243,4860000000,world,base_link,2.6899574621326323,0.9629109474886519,3.009461079991893e-08
4944259319,244,4880000000,world,base_link,2.7050057886981698,0.9652398434434089,2.914712710078149e-08
4944358711,245,4900000000,world,base_link,2.7200561448809886,0.9675686504430061,2.9204827101808606e-08
4944374762,246,4920000000,world,base_link,2.7351043085821587,0.9698968381296025,3.009256470051791e-08
4959821932,247,4940000000,world,base_link,2.7501531768731375,0.9722239439209535,3.0152155203189146e-08
4959854772,248,4960000000,world,base_link,2.7652022697441687,0.9745517245795225,6.20809724009852e-08
5014056716,249,4980000000,world,base_link,2.780252297148323,0.9768816496959705,1.8567722160148237e-07
5014082662,250,5000000000,world,base_link,2.7953008333745224,0.9792060502482238,3.0094639901639963e-08
5064238637,251,5020000000,world,base_link,2.8103495581945026,0.9815328598453501,2.9147073300067605e-08
5064282604,252,5040000000,world,base_link,2.82540031200546,0.9838595799969791,2.9204441802377357e-08
5114294500,253,5060000000,world,base_link,2.8404488733531608,0.9861856787947199,3.0092591103009214e-08
5114315921,254,5080000000,world,base_link,2.8554981404642206,0.9885106982483061,3.015216220106365e-08
5114338162,255,5100000000,world,base_link,2.87054763110298,0.9908363929637103,6.208095350290765e-08
5164057948,256,5120000000,world,base_link,2.8855980543030704,0.9931642274573775,1.8662124130069957e-07
5164086958,257,5140000000,world,base_link,2.900646990484198,0.9954865434990641,3.009466899989155e-08
5177121913,258,5160000000,world,base_link,2.9156961131270336,0.9978112674977364,2.9147019700581644e-08
5180317267,259,5180000000,world,base_link,2.9307472641348546,1.0001359015608955,2.9204056301718184e-08
5224244419,260,5200000000,world,base_link,2.945796222697094,1.0024599122303632,3.009261760264503e-08
5274150055,261,5220000000,world,base_link,2.960845888195962,1.0047828461053978,3.0152169001179674e-08
5274178682,262,5240000000,world,base_link,2.975895776171228,1.007106455636647,6.208093440013274e-08
5324172667,263,5260000000,world,base_link,2.990946594736382,1.0094322002689493,1.8756479750262067e-07
5324214807,264,5280000000,world,base_link,3.005995930439571,1.0117524325583274,3.009469800099862e-08
5324243582,265,5300000000,world,base_link,3.0210454504741158,1.0140750717173201,2.9146966000481722e-08
5324246468,266,5320000000,world,base_link,3.0360969979911516,1.016397618528126,2.9203623502088716e-08
5374261166,267,5340000000,world,base_link,3.0511463536492514,1.0187195413746757,3.009264400166689e-08
5391726340,268,5360000000,world,base_link,3.0661964173991016,1.0210403797163332,3.015217590190966e-08
5444185081,269,5380000000,world,base_link,3.0812467022600387,1.0233618858555307,6.208091080095457e-08
5444243001,270,5400000000,world,base_link,3.096297916239152,1.0256855405641723,1.8854807120119443e-07
5444252830,271,5420000000,world,base_link,3.1113476520550343,1.0280036611876149,3.009472700210569e-08
5504032208,272,5440000000,world,base_link,3.12639757010518,1.0303241780399555,2.914691240099576e-08
5504052060,273,5460000000,world,base_link,3.1414495098190507,1.0326446039667276,2.9202392400062838e-08
5504055944,274,5480000000,world,base_link,3.156499268123479,1.034964428421664,3.009267060191667e-08
5564051515,275,5500000000,world,base_link,3.171549731451435,1.0372831348900489,3.0152182899784163e-08
5564074699,276,5520000000,world,base_link,3.1866004134578496,1.0396025116300587,6.20808724011157e-08
5564087860,277,5540000000,world,base_link,3.2016520241268367,1.0419240700480463,1.8957231090119264e-07
5564096351,278,5560000000,world,base_link,3.216702159671822,1.0442400695677376,3.009475620097124e-08
5624220053,279,5580000000,world,base_link,3.231752474012371,1.0465584729388961,2.914685830190944e-08
5624250019,280,5600000000,world,base_link,3.246804808901601,1.0488767962312018,2.9201749299906377e-08
5638689905,281,5620000000,world,base_link,3.261854964909876,1.0511945218291796,3.009269690032457e-08
5657028237,282,5640000000,world,base_link,3.2769058228297396,1.0535111330937728,3.015218990112811e-08
5714268319,283,5660000000,world,base_link,3.291956898717732,1.055828422778439,6.208089390127847e-08
5714398408,284,5680000000,world,base_link,3.30700890554683,1.0581478826854944,1.902643207013499e-07
5714461677,285,5700000000,world,base_link,3.3220594354292103,1.0604617963639544,3.009478600005111e-08
5764238298,286,5720000000,world,base_link,3.3371101429654466,1.0627781137912544,2.9146805399782316e-08
5764302820,287,5740000000,world,base_link,3.3521628738636124,1.0650943493504563,2.920143880175141e-08
5783610796,288,5760000000,world,base_link,3.3672134237005906,1.0674099819222587,3.0092722799746063e-08
5806377834,289,5780000000,world,base_link,3.382264674737126,1.0697245080400952,3.01521964028717e-08
5854235146,290,5800000000,world,base_link,3.397316144047249,1.0720397116666822,6.208091790291248e-08
5854272066,291,5820000000,world,base_link,3.4123685456514607,1.0743570771749749,1.9110638210112496e-07
5854359890,292,5840000000,world,base_link,3.4274194698894505,1.07666890563715,3.009481510177214e-08
5904065174,293,5860000000,world,base_link,3.4424705699773845,1.0789831359200566,2.9146752299896717e-08
5904087235,294,5880000000,world,base_link,3.457523693404031,1.081297281955922,2.9201020899927155e-08
5905918040,295,5900000000,world,base_link,3.472574637965966,1.0836108251089964,3.009274970183773e-08
5943740271,296,5920000000,world,base_link,3.4876262820458273,1.085923262672953,3.015220290114584e-08
5994249466,297,5940000000,world,base_link,3.5026781421993363,1.0882363784900662,6.208081480135741e-08
5994317073,298,5960000000,world,base_link,3.5177309364033498,1.0905516521953977,1.9248557100309815e-07
5994332144,299,5980000000,world,base_link,3.5327822556842463,1.0928613956047384,3.009484290245057e-08
6044252123,300,6000000000,world,base_link,3.547833747838691,1.0951735402076013,2.9146697801823995e-08
6057282638,301,6020000000,world,base_link,3.5628872636250577,1.097485599957559,2.9200625899922228e-08
6104029493,302,6040000000,world,base_link,3.577938603040856,1.0997970554602094,3.009277660045995e-08
6104052226,303,6060000000,world,base_link,3.5929906420350513,1.1021074088627234,3.015220970126187e-08
6104116589,304,6080000000,world,base_link,3.608042896103914,1.1044184417247536,6.20807320030059e-08
6154173527,305,6100000000,world,base_link,3.623096083136357,1.1067316251538175,1.9369250130185645e-07
6154209743,306,6120000000,world,base_link,3.638147800168138,1.109039287912477,3.009487129987387e-08
6156512178,307,6140000000,world,base_link,3.6531996869669854,1.1113493505897418,2.914664390049615e-08
6192491544,308,6160000000,world,base_link,3.6682535965894907,1.1136593270981834,2.920028260161578e-08
6234388345,309,6180000000,world,base_link,3.683305330810743,1.1159686965200102,3.009280320070973e-08
6234460820,310,6200000000,world,base_link,3.698357765548664,1.118276967847014,3.015221650137789e-08
6234491173,311,6220000000,world,base_link,3.7134104139133868,1.1205859186654816,6.20806690013187e-08
6284129423,312,6240000000,world,base_link,3.728463993464178,1.122897013619263,1.9482094840150843e-07
6284167671,313,6260000000,world,base_link,3.7435161080484924,1.1252025957586316,3.009489980138058e-08
6301537543,314,6280000000,world,base_link,3.7585683897578015,1.127510576106455,2.914659030101019e-08
6301565166,315,6300000000,world,base_link,3.7736226934137562,1.12981846919938,2.919990340147227e-08
6344176177,316,6320000000,world,base_link,3.7886748223532507,1.1321257532117786,3.009282970034555e-08
6394261273,317,6340000000,world,base_link,3.8037276530118582,1.1344319417272875,3.0152223100265996e-08
6394299065,318,6360000000,world,base_link,3.8187806958858346,1.1367388100982394,6.208062480056453e-08
6394412526,319,6380000000,world,base_link,3.8338346677551804,1.1390478175724175,1.9587877590071523e-07
6444193296,320,6400000000,world,base_link,3.8488871796341826,1.141351318875114,3.009492850064577e-08
6444247256,321,6420000000,world,base_link,3.8639398561087397,1.1436572170653188,2.914653690275215e-08
6444315667,322,6440000000,world,base_link,3.8789945535988366,1.1459630272700503,2.9199519000627783e-08
6494130234,323,6460000000,world,base_link,3.8940470768739885,1.1482682264099768,3.009285610283685e-08
6494161624,324,6480000000,world,base_link,3.909100303213542,1.1505723323535149,3.015222979976806e-08
6505748123,325,6500000000,world,base_link,3.924153740586828,1.1528771183631275,6.208059250001341e-08
6519847547,326,6520000000,world,base_link,3.939208104638059,1.1551840389826884,1.9685628960264268e-07
6564276652,327,6540000000,world,base_link,3.9542610135547136,1.1574854591506316,3.009495740113888e-08
6614311836,328,6560000000,world,base_link,3.969314084855892,1.1597892749449095,2.9146483802866552e-08
6614346693,329,6580000000,world,base_link,3.9843691762456785,1.1620930023655598,2.9199126502094108e-08
6614401823,330,6600000000,world,base_link,3.999422093520206,1.1643961168917665,3.0092882300630786e-08
6664149488,331,6620000000,world,base_link,4.0144757153025274,1.1666981403457362,3.0152236200897686e-08
6664190060,332,6640000000,world,base_link,4.02952954699056,1.1690008442415172,6.208057040310577e-08
6675843708,333,6660000000,world,base_link,4.044584302930538,1.1713056785459335,1.9780421240192525e-07
6682822670,334,6680000000,world,base_link,4.05965066709339,1.1735372329894371,3.03821902011836e-08
6724151394,335,6700000000,world,base_link,4.07475196546277,1.1756495043599724,-1.2829280503987017e-06
6774106179,336,6720000000,world,base_link,4.089847341051559,1.1778386854743523,-2.344818278200017e-06
6774134601,337,6740000000,world,base_link,4.1049782866556335,1.1797654446542287,-2.327464335098034e-06
6834067127,338,6760000000,world,base_link,4.120138605624373,1.1814815279963815,-2.3029366202978463e-06
6834091784,339,6780000000,world,base_link,4.135328311464551,1.1829751430289583,-2.2780511200991282e-06
6834104825,340,6800000000,world,base_link,4.150543563397271,1.1843387630740008,-2.246770143498472e-06
6834117296,341,6820000000,world,base_link,4.165782066324308,1.1856375021256387,-2.2169397633983734e-06
6884178980,342,6840000000,world,base_link,4.181040840549798,1.1868734587348122,-2.446702402899431e-06
6884225275,343,6860000000,world,base_link,4.196316399221679,1.188062748429104,-2.7546449775997517e-06
6909027767,344,6880000000,world,base_link,4.2116013415323295,1.1892237386904823,1.4798716620190167e-07
6909061882,345,6900000000,world,base_link,4.22690313783913,1.1902924115112308,-1.3387217111977823e-06
6954139179,346,6920000000,world,base_link,4.242206001834251,1.1913285320766045,-2.7740961999755953e-08
6954191068,347,6940000000,world,base_link,4.257514404356172,1.1923029927290933,-1.8234463897148778e-08
7004087758,348,6960000000,world,base_link,4.272828384596,1.1931450645093369,-1.6804571800060897e-08
7004116884,349,6980000000,world,base_link,4.288146418054961,1.1938475231787686,-1.536975479873859e-08
7054146051,350,7000000000,world,base_link,4.303467241463302,1.19441117295316,-1.3900735597316416e-08
7054185163,351,7020000000,world,base_link,4.318789624708899,1.1948361298713701,-1.2392852098697116e-08
7054220292,352,7040000000,world,base_link,4.334112340931291,1.1951223691617674,-1.0871337496887179e-08
7104338730,353,7060000000,world,base_link,4.349434165547052,1.1952697222577005,-9.273815500254745e-09
7104387176,354,7080000000,world,base_link,4.364753881865351,1.1952786752874998,-7.622030596954321e-09
7104870025,355,7100000000,world,base_link,4.38007027355043,1.1951493859094278,-5.918551999190003e-09
7142061204,356,7120000000,world,base_link,4.395382126517024,1.1948819540115254,-4.162937598806149e-09
7194152101,357,7140000000,world,base_link,4.410688228697602,1.1944764819984215,-2.3619079990433445e-09
7194201147,358,7160000000,world,base_link,4.4259873702207955,1.1939330790688611,-5.144797990408456e-10
7244089421,359,7180000000,world,base_link,4.441278342776744,1.1932518599160327,-6.5697999124259e-11
7244120320,360,7200000000,world,base_link,4.45655995018717,1.192432939165852,-6.563099716472287e-11
7294204240,361,7220000000,world,base_link,4.4718309908578675,1.1914764442538157,-6.555849960121485e-11
7294226453,362,7240000000,world,base_link,4.487094896851115,1.1904315788217348,-5.794219964938563e-11
7294278011,363,7260000000,world,base_link,4.502364009550394,1.189647978275091,-3.063559822491513e-11
7294354684,364,7280000000,world,base_link,4.517625325620898,1.1887999259703523,-3.0640798925896107e-11
7344211945,365,7300000000,world,base_link,4.53288518604689,1.1879480957667568,-3.063939726932752e-11
7349936109,366,7320000000,world,base_link,4.548145026410779,1.1870960658621437,-3.063879705500483e-11
7394750852,367,7340000000,world,base_link,4.563404880487695,1.1862441796803846,-3.0638099696167487e-11
7394854821,368,7360000000,world,base_link,4.57866475060214,1.185392461594411,-3.06374994818448e-11
7394861664,369,7380000000,world,base_link,4.593924636916817,1.1845409133286635,-3.0636798653560504e-11
7444375604,370,7400000000,world,base_link,4.609184539441742,1.1836895350071792,-3.063609782527621e-11
7444398006,371,7420000000,world,base_link,4.624444458176132,1.18283832664092,-3.063549761095352e-11
7448743298,372,7440000000,world,base_link,4.639704393118432,1.181987288232861,-3.063480025211618e-11
7486931441,373,7460000000,world,base_link,4.654964344267036,1.1811364197854166,-3.063420003779349e-11
7544414124,374,7480000000,world,base_link,4.6702243116203555,1.180285721300958,-3.0633499209509196e-11
7544446197,375,7500000000,world,base_link,4.685484295176781,1.1794351927818552,-3.06327983812249e-11
7544464517,376,7520000000,world,base_link,4.700744294934697,1.1785848342304757,-3.0632198166902214e-11
7594323624,377,7540000000,world,base_link,4.716004310892526,1.1777346456491902,-3.063149733861792e-11
7595047981,378,7560000000,world,base_link,4.73126434304864,1.1768846270403666,-3.063089712429523e-11
7644170301,379,7580000000,world,base_link,4.746524391401437,1.1760347784063745,-3.063019976545789e-11
7644198950,380,7600000000,world,base_link,4.761784455949321,1.1751850997495827,-3.0629498937173594e-11
7644462476,381,7620000000,world,base_link,4.777044536690674,1.17433559107236,-3.0628898722850906e-11
7694101343,382,7640000000,world,base_link,4.79230463362391,1.1734862523770762,-3.062819789456661e-11
7694158886,383,7660000000,world,base_link,4.80756474674741,1.1726370836660989,-3.062759768024392e-11
7694196725,384,7680000000,world,base_link,4.82282487605957,1.171788084941796,-3.062689685195963e-11
7754041764,385,7700000000,world,base_link,4.838085021558783,1.1709392562065402,-3.0626199493122286e-11
7754061852,386,7720000000,world,base_link,4.853345183243441,1.1700905974627007,-3.06255992787996e-11
7754067803,387,7740000000,world,base_link,4.868605361111957,1.1692421087126448,-3.0624898450515303e-11
7814212139,388,7760000000,world,base_link,4.883865555162707,1.1683937899587402,-3.0624298236192615e-11
7814322630,389,7780000000,world,base_link,4.899125765394096,1.1675456412033522,-3.062359740790832e-11
7814395800,390,7800000000,world,base_link,4.914385991804522,1.1666976624488568,-3.062290004907098e-11
7874273571,391,7820000000,world,base_link,4.929646234392372,1.1658498536976198,-3.062229983474829e-11
7874331347,392,7840000000,world,base_link,4.944906493156051,1.1650022149520112,-3.0621599006463995e-11
7887703619,393,7860000000,world,base_link,4.960166768093938,1.1641547462144013,-3.062099879214131e-11
7887735340,394,7880000000,world,base_link,4.975427059204435,1.1633074474871608,-3.062029796385701e-11
7934243499,395,7900000000,world,base_link,4.99068736648594,1.1624603187726548,-3.0619697749534325e-11
7934272594,396,7920000000,world,base_link,5.005947689936846,1.161613360073252,-3.061899692125003e-11
7984269242,397,7940000000,world,base_link,5.021208029555531,1.1607665713913207,-3.061829956241269e-11
7987677024,398,7960000000,world,base_link,5.0364683853404095,1.15991995272923,-3.061769934809e-11
8044255887,399,7980000000,world,base_link,5.051728757289872,1.1590735040893518,-3.0616998519805705e-11
8044291946,400,8000000000,world,base_link,5.066989145402296,1.1582272254740564,-3.061629769152141e-11
8044345815,401,8020000000,world,base_link,5.082249549676092,1.1573811168857064,-3.061569747719872e-11
8094341424,402,8040000000,world,base_link,5.097509970109659,1.1565351783266742,-3.061500011836138e-11
8094372734,403,8060000000,world,base_link,5.112770406701372,1.1556894097993302,-3.061439990403869e-11
8094686965,404,8080000000,world,base_link,5.12803085944962,1.1548438113060415,-3.06136990757544e-11
8144190678,405,8100000000,world,base_link,5.143291328352827,1.1539983828491769,-3.06129982474701e-11
8144257103,406,8120000000,world,base_link,5.158551813409371,1.1531531244311068,-3.0612398033147414e-11
8149131742,407,8140000000,world,base_link,5.173812314617646,1.1523080360541975,-3.0611797818824726e-11
8184988611,408,8160000000,world,base_link,5.189072831976041,1.151463117720822,-3.061109699054043e-11
8234195762,409,8180000000,world,base_link,5.2043333654829524,1.1506183694333467,-3.061039963170309e-11
8234208837,410,8200000000,world,base_link,5.219573348010432,1.1493732011728488,3.4402582840126206e-07
8284312210,411,8220000000,world,base_link,5.2348177412484524,1.1480003517352761,-1.8409903406978179e-06
8284601749,412,8240000000,world,base_link,5.25005716897628,1.1465281138505832,-6.811201242983012e-07
8284639104,413,8260000000,world,base_link,5.2652727778797725,1.1449161600252022,2.3704738250085455e-07
8334016809,414,8280000000,world,base_link,5.280471947780931,1.1431565200134663,-2.0153874805001193e-06
8334027810,415,8300000000,world,base_link,5.295658933605591,1.1412608227452266,-6.565649370987581e-07
8342593326,416,8320000000,world,base_link,5.310817356224895,1.1392199247444115,3.055590884031012e-07
8371641724,417,8340000000,world,base_link,5.325955119406274,1.1370279714923042,-2.165458046397839e-06
8414457283,418,8360000000,world,base_link,5.341076224880812,1.1346984479391429,-5.553977703992574e-07
8414534930,419,8380000000,world,base_link,5.3561650079807315,1.1322216021040203,3.5143019240166384e-07
8414614126,420,8400000000,world,base_link,5.3712268477645395,1.129635972750859,-7.010910983706875e-10
8464135689,421,8420000000,world,base_link,5.386254973707608,1.1269206710467907,-8.277592986050131e-10
8464157386,422,8440000000,world,base_link,5.401254633364989,1.124064867835843,-8.243887968106822e-10
8483688524,423,8460000000,world,base_link,5.416223020439851,1.1210863728590343,-8.212041983923779e-10
8505571430,424,8480000000,world,base_link,5.43116107241454,1.1179803012585188,-8.174760000867476e-10
8564271031,425,8500000000,world,base_link,5.446067520847649,1.1147363005243864,-8.137935984808831e-10
8564310135,426,8520000000,world,base_link,5.46094091155026,1.1113536785124785,-8.10184096894373e-10
8564336486,427,8540000000,world,base_link,5.475779982880152,1.107832663146536,-8.066330971223667e-10
8564483456,428,8560000000,world,base_link,5.490643022673176,1.1046008084587529,-1.1946895001058166e-09
8614194556,429,8580000000,world,base_link,5.50546287599089,1.1012487608207069,-7.074719976518651e-11
8614233108,430,8600000000,world,base_link,5.520276402895416,1.0978757563376789,-6.376539921082447e-11
8649545546,431,8620000000,world,base_link,5.535089556431995,1.0945013240800359,-6.389449733190666e-11
8649760820,432,8640000000,world,base_link,5.549902715433426,1.0911269127458176,-6.384299686135186e-11
8704071674,433,8660000000,world,base_link,5.564715906643187,1.0877526247661997,-6.389519816019096e-11
8704092706,434,8680000000,world,base_link,5.57952913195037,1.0843784673794978,-6.387529741247455e-11
8764207145,435,8700000000,world,base_link,5.594342391487221,1.0810044410977717,-6.389550000207578e-11
8764244917,436,8720000000,world,base_link,5.6091556852627775,1.0776305459594058,-6.388819681624192e-11
8764293590,437,8740000000,world,base_link,5.623969013272095,1.074256781976855,-6.41255971933763e-11
8814246938,438,8760000000,world,base_link,5.638782375529438,1.0708831491294992,-6.389299853082342e-11
8814285050,439,8780000000,world,base_link,5.653595772019049,1.067509647445421,-6.37706970563201e-11
8814311050,440,8800000000,world,base_link,5.668409202746208,1.0641362769102445,-6.389469855982988e-11
8874160362,441,8820000000,world,base_link,5.683222667709597,1.060763037535832,-6.384309747531347e-11
8874198275,442,8840000000,world,base_link,5.698036166908135,1.0573899293191156,-6.389539938811417e-11
8874227951,443,8860000000,world,base_link,5.71284970034208,1.0540169522646252,-6.387549864039777e-11
8924539979,444,8880000000,world,base_link,5.727663268010275,1.0506441063735998,-6.389559714659043e-11
8924609374,445,8900000000,world,base_link,5.7424768699123625,1.0472713916483523,-6.388829743020352e-11
8933001377,446,8920000000,world,base_link,5.7572905060427075,1.04389880809879,-6.412610026318433e-11
8959581999,447,8940000000,world,base_link,5.772104176415528,1.0405263557041113,-6.389309914478503e-11
9004068961,448,8960000000,world,base_link,5.786917881015071,1.0371540344923913,-6.37706970563201e-11
9004098367,449,8980000000,world,base_link,5.8017316198466204,1.0337818444492468,-6.389489978775309e-11
9004151960,450,9000000000,world,base_link,5.816545392908843,1.0304097855865484,-6.384319808927508e-11
9064168431,451,9020000000,world,base_link,5.831359200200673,1.0270378579012212,-6.389550000207578e-11
9064210611,452,9040000000,world,base_link,5.84617304172237,1.0236660613977993,-6.387559925435937e-11
9071979772,453,9060000000,world,base_link,5.860986917472761,1.020294396077519,-6.389579837451365e-11
9106007087,454,9080000000,world,base_link,5.875800827451492,1.0169228619426969,-6.388839804416513e-11
9154306247,455,9100000000,world,base_link,5.890614771652938,1.0135514590032395,-6.412659986354541e-11
9154359411,456,9120000000,world,base_link,5.905428750091314,1.0101801872383334,-6.389319975874663e-11
9154377535,457,9140000000,world,base_link,5.920242762749098,1.0068090466775743,-6.377789962819236e-11
9204256774,458,9160000000,world,base_link,5.935056809636848,1.0034380373020229,-6.389469855982988e-11
9204304911,459,9180000000,world,base_link,5.949870890747384,1.0000671591303263,-6.377099889820492e-11
9220570949,460,9200000000,world,base_link,5.96468500608313,0.9966964121512891,-6.389499693226774e-11
9220593598,461,9220000000,world,base_link,5.979499155642646,0.9933257963773645,-6.383119727226827e-11
9264533479,462,9240000000,world,base_link,5.994313339425236,0.9899553118036124,-6.389559714659043e-11
9264560731,463,9260000000,world,base_link,6.009127557430933,0.9865849584371329,-6.384339931719829e-11
9314205635,464,9280000000,world,base_link,6.023941809658222,0.9832147362764854,-6.389569776055204e-11
9314246678,465,9300000000,world,base_link,6.03875609610742,0.9798446453263177,-6.387069692581626e-11
9364229567,466,9320000000,world,base_link,6.053570416777141,0.9764746855874051,-6.389599960243686e-11
9364253593,467,9340000000,world,base_link,6.068384771667397,0.973104857062653,-6.387589762679724e-11
9414247086,468,9360000000,world,base_link,6.083199160777074,0.9697351597538697,-6.389599960243686e-11
9414267326,469,9380000000,world,base_link,6.0980135841059635,0.966365593663431,-6.387589762679724e-11
9414328863,470,9400000000,world,base_link,6.11282804165306,0.9629961587933549,-6.389599960243686e-11
9464158129,471,9420000000,world,base_link,6.1276425334181255,0.9596268551459994,-6.387589762679724e-11
9464189995,472,9440000000,world,base_link,6.142457059400172,0.9562576827233782,-6.389610021639847e-11
9486820106,473,9460000000,world,base_link,6.157271619598944,0.9528886415278519,-6.387589762679724e-11
9486892624,474,9480000000,world,base_link,6.172086214013454,0.949519731561435,-6.389610021639847e-11
9534043706,475,9500000000,world,base_link,6.186900842643464,0.9461509528264873,-6.387599824075885e-11
9534070349,476,9520000000,world,base_link,6.201715505487975,0.9427823053250233,-6.389610021639847e-11
9594048450,477,9540000000,world,base_link,6.216530202546828,0.9394137890595466,-6.387089815373947e-11
9594074325,478,9560000000,world,base_link,6.2313449338188,0.9360454040316091,-6.389610021639847e-11
9654134496,479,9580000000,world,base_link,6.24615969930402,0.9326771502447269,-6.384359707567455e-11
9654173817,480,9600000000,world,base_link,6.2609744990009695,0.929309027698717,-6.389599960243686e-11
9654211610,481,9620000000,world,base_link,6.275789332909451,0.9259410364008236,-6.377129727064279e-11
9654220491,482,9640000000,world,base_link,6.290604201029556,0.9225731763437919,-6.389539938811417e-11
9714179212,483,9660000000,world,base_link,6.305419103354794,0.9192054475461378,-6.412799805066705e-11
9714212355,484,9680000000,world,base_link,6.32023403989961,0.9158378499843653,-6.389359874514611e-11
9718688597,485,9700000000,world,base_link,6.335049010648714,0.9124703836835026,-6.389629797487473e-11
9751275538,486,9720000000,world,base_link,6.349864015606332,0.9091030486380589,-6.387609885472045e-11
9794196986,487,9740000000,world,base_link,6.364679054771667,0.905735844850196,-6.389629797487473e-11
9794221760,488,9760000000,world,base_link,6.379494128144458,0.9023687723220206,-6.389639858883633e-11
9794231769,489,9780000000,world,base_link,6.394309235723888,0.899001831055771,-6.389649920279794e-11
9854107737,490,9800000000,world,base_link,6.40912437750935,0.8956350210537023,-6.389639858883633e-11
9854149276,491,9820000000,world,base_link,6.423939553500237,0.8922683423180047,-6.389639858883633e-11
9855708952,492,9840000000,world,base_link,6.438754763695908,0.8889017948508631,-6.389649920279794e-11
9900415515,493,9860000000,world,base_link,6.453570008095763,0.8855353786544695,-6.389649920279794e-11
9954207724,494,9880000000,world,base_link,6.468385286699188,0.8821690937310098,-6.389649920279794e-11
9954236429,495,9900000000,world,base_link,6.483200599505558,0.8788029400826698,-6.389649920279794e-11
9954258200,496,9920000000,world,base_link,6.497962025044597,0.8752004527425576,-5.334145972146764e-10
9954295569,497,9940000000,world,base_link,6.512739834510928,0.8714678135569001,-6.922338157699243e-06
10004259477,498,9960000000,world,base_link,6.527473198072915,0.8675622515612638,-6.9126856301997275e-06
10004295529,499,9980000000,world,base_link,6.542163019675883,0.863519950673135,-6.902462913998403e-06
10007759290,500,10000000000,world,base_link,6.556810662167326,0.8593458203587216,-6.891882198697963e-06
10021319976,501,10020000000,world,base_link,6.571413472638252,0.855037279271933,-6.880918818997356e-06
10064181392,502,10040000000,world,base_link,6.585968351249008,0.8505915872495562,-6.869541817097757e-06
10124297203,503,10060000000,world,base_link,6.6004725595785985,0.8460057319503989,-6.85773276579843e-06
10124325437,504,10080000000,world,base_link,6.6149232325248875,0.8412766777240268,-6.845474523599349e-06
10124348861,505,10100000000,world,base_link,6.629317365998261,0.8364013717453309,-6.832747761597452e-06
10184219746,506,10120000000,world,base_link,6.643625421537781,0.8314190072345413,-9.083348042997208e-07
10184261776,507,10140000000,world,base_link,6.6578887439318954,0.8263280990231623,-1.4523662480968313e-06
10184323779,508,10160000000,world,base_link,6.672062500184062,0.8210468420873891,2.5080357110227047e-07
10234119812,509,10180000000,world,base_link,6.686156656451022,0.8155528355973312,-1.225421641500024e-06
10234159542,510,10200000000,world,base_link,6.70017048370892,0.8098534165241134,-1.3407710906000736e-06
10257240370,511,10220000000,world,base_link,6.714081679311793,0.803955567874068,3.9156728450298606e-07
10257275309,512,10240000000,world,base_link,6.727904349655262,0.797846958119532,-1.5227882880983201e-06
10304208574,513,10260000000,world,base_link,6.741638253199483,0.7915376589866998,-1.2356921189997372e-06
10304254958,514,10280000000,world,base_link,6.755260850846227,0.7850338847825542,5.304969108999025e-07
10354128938,515,10300000000,world,base_link,6.768786462987823,0.7783225756350269,-1.8082657992982143e-06
10354171298,516,10320000000,world,base_link,6.782215062960514,0.7714155936711693,-1.1341809991981255e-06
10404128893,517,10340000000,world,base_link,6.795523913973895,0.7643184799410561,6.635447442025766e-07
10404168154,518,10360000000,world,base_link,6.80872879487594,0.7570163858121761,-2.118471155498902e-06
10404220685,519,10380000000,world,base_link,6.821830200686097,0.749522693036555,-8.88677725199849e-07
10454199652,520,10400000000,world,base_link,6.8348064278346,0.7418412833772665,7.517666568007675e-07
10454238551,521,10420000000,world,base_link,6.847670414174672,0.7339587673638315,-2.441469495798737e-06
10454295680,522,10440000000,world,base_link,6.8604223219261655,0.7258909073489423,-6.430164955981144e-07
10504092912,523,10460000000,world,base_link,6.873041616286812,0.7176396350233558,8.261525112004953e-07
10504123415,524,10480000000,world,base_link,6.88553945319785,0.7091923443192787,-2.7054046959976152e-06
10504155642,525,10500000000,world,base_link,6.897916374496543,0.7005666888070428,-5.051106318001986e-07
10554050114,526,10520000000,world,base_link,6.910152194111202,0.6917641204526017,9.0950668329981e-07
10554083223,527,10540000000,world,base_link,6.92225780497289,0.6827716808304194,-2.9234804027993e-06
10566855096,528,10560000000,world,base_link,6.934234951862436,0.6736064712748693,-4.1946474899773323e-07
10593332048,529,10580000000,world,base_link,6.94606359914318,0.6642696605240044,9.806112030025238e-07
10634125319,530,10600000000,world,base_link,6.957754358418892,0.6547484395884746,-3.129738876898186e-06
10684326429,531,10620000000,world,base_link,6.969309172845108,0.645060938802744,-3.488825626001002e-07
10684378460,532,10640000000,world,base_link,6.98070762515086,0.6352093116465509,1.04841733050004e-06
10684453172,533,10660000000,world,base_link,6.991955703790296,0.6251853709362374,-6.745822677990676e-07
10734191675,534,10680000000,world,base_link,7.003050973052048,0.615003416359114,-6.189189785676952e-11
10734204547,535,10700000000,world,base_link,7.013988240794234,0.6046620810347836,-5.212209830407488e-11
10734252090,536,10720000000,world,base_link,7.024770260793357,0.5941593858480418,-5.242859965615132e-11
10794191994,537,10740000000,world,base_link,7.0353948086803655,0.5834975249314533,-5.7312599111014606e-11
10794223966,538,10760000000,world,base_link,7.045859670617382,0.5726787165743756,-5.340969680411867e-11
10795886879,539,10780000000,world,base_link,7.056162662810934,0.5617052087383314,-5.3773898528453046e-11
10805781788,540,10800000000,world,base_link,7.066301633003874,0.5505792797443885,-5.8177698769590336e-11
10854077271,541,10820000000,world,base_link,7.076274460977018,0.5393032378879559,-6.456359752382568e-11
10854106521,542,10840000000,world,base_link,7.086079058929425,0.5278794209794375,-6.49015979847789e-11
10904221748,543,10860000000,world,base_link,7.095713371929882,0.5163101959138272,-6.522839907097122e-11
10904256324,544,10880000000,world,base_link,7.105175378308196,0.5045979581902289,-6.554409792691729e-11
10954143460,545,10900000000,world,base_link,7.114463090056471,0.49274513145735543,-6.584849679414084e-11
10954169360,546,10920000000,world,base_link,7.123574553221914,0.48075416703712825,-6.614159914208884e-11
10954180952,547,10940000000,world,base_link,7.13250784829334,0.4686275434477416,-6.642319680394415e-11
11014313155,548,10960000000,world,base_link,7.141261090581018,0.4563677659207066,-6.66934979465239e-11
11014432060,549,10980000000,world,base_link,7.149832430589409,0.44397736591243575,-6.695219725849633e-11
11018591530,550,11000000000,world,base_link,7.1582200543833,0.4314589006105587,-6.719929820930837e-11
11052466504,551,11020000000,world,base_link,7.166422183947123,0.41881495243540634,-6.743489794347468e-11
11094179150,552,11040000000,world,base_link,7.1744370775372595,0.40604812853614813,-6.765879870251901e-11
11094236377,553,11060000000,world,base_link,7.182263030027148,0.39316106028206566,-6.78709970169944e-11
11094424168,554,11080000000,world,base_link,7.189898373245388,0.380156402748967,-6.807149982579475e-11
11144117494,555,11100000000,world,base_link,7.1973414763067005,0.3670368342008459,-6.826019957606455e-11
11144168775,556,11120000000,world,base_link,7.204590745935512,0.35380505556688835,-6.843709973725076e-11
11148881167,557,11140000000,world,base_link,7.21164462678237,0.34046378991392245,-6.860209969539177e-11
11189395195,558,11160000000,world,base_link,7.2185474207173534,0.32702226091749687,-1.8740049572002482e-06
11244194810,559,11180000000,world,base_link,7.225245717804668,0.31346129722652716,-7.600765173698676e-06
11244229286,560,11200000000,world,base_link,7.231723308860516,0.29982506680846654,-1.0042349937733341e-10
11244262041,561,11220000000,world,base_link,7.238015821217498,0.2860838800201009,-6.098349950023341e-11
11294001472,562,11240000000,world,base_link,7.244109392780999,0.27224843686659916,-5.830979796228597e-11
11294004628,563,11260000000,world,base_link,7.2500028402696195,0.2583215799538259,-5.818439827165456e-11
11297199559,564,11280000000,world,base_link,7.255694936448837,0.24430607150123773,-5.821679943673885e-11
11316697521,565,11300000000,world,base_link,7.2611830870846745,0.23020444607345247,-1.539548974416327e-10
11364278249,566,11320000000,world,base_link,7.266464637982914,0.21601955839140086,-1.553865994208259e-10
11364325279,567,11340000000,world,base_link,7.271540539121382,0.20175424876156178,-1.5682449783227526e-10
11414447118,568,11360000000,world,base_link,7.276409118338439,0.1874111169339221,-1.582364968222283e-10
11414491796,569,11380000000,world,base_link,7.281076176560585,0.1729972771608006,9.633130212023666e-07
11414536709,570,11400000000,world,base_link,7.285633410595281,0.15851026783646915,-9.679908755898942e-06
11474161640,571,11420000000,world,base_link,7.28992919170776,0.14396554822977414,1.0967002119985358e-07
11474226471,572,11440000000,world,base_link,7.29403780140181,0.12935084515213102,1.0551933770155952e-07
11474233107,573,11460000000,world,base_link,7.297958594759493,0.11467335826128178,5.490564280313803e-08
11534066160,574,11480000000,world,base_link,7.301678017409252,0.09994163061758776,2.8178469602818668e-08
11534094858,575,11500000000,world,base_link,7.305176235488776,0.08515229374471645,2.844677820038055e-08
11550826651,576,11520000000,world,base_link,7.308471338478679,0.07031047135306512,2.8539579401132276e-08
11550883632,577,11540000000,world,base_link,7.311561799322924,0.05541807584209657,2.864738680302681e-08
11604246037,578,11560000000,world,base_link,7.314449877852606,0.040477721726660754,2.881435210225214e-08
11604283392,579,11580000000,world,base_link,7.317122423776006,0.025491923091133017,2.889187340066046e-08
11664237157,580,11600000000,world,base_link,7.319590231119719,0.010461313088722335,-1.195217460198128e-06
11664274688,581,11620000000,world,base_link,7.321924682076215,-0.004599354040251136,3.535495520304299e-08
11664300599,582,11640000000,world,base_link,7.324058411915058,-0.019701006032401658,-5.493755499130781e-09
11714192323,583,11660000000,world,base_link,7.3261566515236645,-0.03479744591361644,2.7810556201685044e-08
