%time,seq,stamp,frame_id,x,y,z
0,0,0,world,0.0,0.0,0.0
68359266,1,50000000,world,7.643658150868761e-09,2.707759128028897e-09,3.281465410509554e-08
95011208,2,100000000,world,7.744407781729024e-09,3.414911464716397e-09,3.6007737236332105e-08
158550163,3,150000000,world,7.913192767716737e-09,3.074021703852736e-09,3.4068154519673044e-08
196936203,4,200000000,world,8.08197775370445e-09,2.7331319429890755e-09,3.212857180301398e-08
260931692,5,250000000,world,8.142401419775071e-09,2.7031903382379596e-09,3.1819553214518244e-08
294310775,6,300000000,world,8.202160728387753e-09,2.6671147512757894e-09,3.151574645698929e-08
362824934,7,350000000,world,8.257835304448236e-09,2.615600180888577e-09,3.1223272856095725e-08
396237056,8,400000000,world,8.129962481007169e-09,2.6796465046885487e-09,3.238939427774312e-08
474829383,9,450000000,world,8.002103868420818e-09,2.7436928284885202e-09,3.355552635753156e-08
497286296,10,500000000,world,6.6882295257642e-09,2.394342724088005e-09,3.4655421643492446e-08
563094201,11,550000000,world,6.675773711606325e-09,2.391792763845046e-09,3.5328231007270006e-08
597438843,12,600000000,world,6.663267715367738e-09,2.399298093536117e-09,3.5995164182622836e-08
665406536,13,650000000,world,6.5660699100078546e-09,2.489479955514184e-09,3.6478432718922704e-08
706693132,14,700000000,world,6.2418679114273345e-09,2.5703936756826806e-09,3.630025346978982e-08
763267417,15,750000000,world,5.9176659128468145e-09,2.6513073958511772e-09,3.612207422065694e-08
798681877,16,800000000,world,6.5502119284133195e-09,2.2902753027409517e-09,3.48467104061001e-08
859792469,17,850000000,world,6.744839353700627e-09,2.409567434469295e-09,3.3388264597533635e-08
896542164,18,900000000,world,8.036146859069504e-09,2.6650832651853307e-09,3.3315760816776674e-08
964271458,19,950000000,world,9.32745436443838e-09,2.920599095901366e-09,3.324325703601971e-08
997097702,20,1000000000,world,9.727317618057896e-09,3.0193343381057502e-09,3.362886147328936e-08
1062221751,21,1050000000,world,-0.0005696235457435,0.0001009766128845,0.0226174592971801
1104015901,22,1100000000,world,0.0002206384961027,0.0016200976679101,0.0626574084162712
1163560951,23,1150000000,world,0.0022072028368711,-0.0004659200494643,0.0981928259134292
1200081086,24,1200000000,world,0.0011240802705287,-0.0009395300876349,0.1367989480495453
1279856809,25,1250000000,world,0.0028327447362244,0.001190694514662,0.1772889047861099
1301465289,26,1300000000,world,0.0024684281088411,0.0011749430559575,0.2123358100652694
1365585354,27,1350000000,world,0.0020062185358256,0.0004985378473065,0.2501752376556396
1398036632,28,1400000000,world,0.0025155623443424,-0.000243807764491,0.2888285517692566
1463342402,29,1450000000,world,0.0036964267492294,0.0008310747216455,0.3259963691234588
1497127540,30,1500000000,world,0.0040366873145103,-0.0016127856215462,0.3627377450466156
1564986599,31,1550000000,world,0.0061946073547005,-0.003026254940778,0.3973318934440613
1598215698,32,1600000000,world,0.0041739186272025,0.000551153672859,0.4398719668388366
1664060044,33,1650000000,world,0.0027162476908415,-0.0001431330310879,0.4778153300285339
1694061888,34,1700000000,world,0.0037597771733999,0.0027049435302615,0.5151869058609009
1756589993,35,1750000000,world,0.0027070788200944,-0.0006792457425035,0.5484628081321716
1795349484,36,1800000000,world,0.0033284772653132,-0.0007559250807389,0.5862739682197571
1859535305,37,1850000000,world,0.003930774051696,-0.0012523143086582,0.623623251914978
1898361765,38,1900000000,world,0.0060749500989913,0.0006851581274531,0.6631483435630798
1967625059,39,1950000000,world,0.0130635630339384,0.003008700441569,0.7082785964012146
1997483817,40,2000000000,world,0.0186268016695976,0.0062972246669232,0.7467005848884583
2066961375,41,2050000000,world,0.0246850475668907,-0.0009803669527173,0.7756417989730835
2097514907,42,2100000000,world,0.0300477910786867,0.0013708199840039,0.8154535293579102
2166951418,43,2150000000,world,0.037322599440813,0.0022261478006839,0.8579875826835632
2202280201,44,2200000000,world,0.0466494970023632,0.0012781631667166,0.8919981122016907
2266100995,45,2250000000,world,0.0557992830872535,0.000298768893117,0.9265777468681335
2298934785,46,2300000000,world,0.0677241757512092,0.0008981069549918,0.962543487548828
2372952756,47,2350000000,world,0.0750402361154556,-0.0019626703578978,1.0080130100250244
2394839035,48,2400000000,world,0.0840303748846054,-0.0010460339253768,1.044110655784607
2460193958,49,2450000000,world,0.0938931256532669,-0.0033362004905939,1.07934832572937
2496888009,50,2500000000,world,0.1013298481702804,-0.0022736161481589,1.116518497467041
2571891838,51,2550000000,world,0.1123328357934951,-0.0004402164777275,1.1560734510421753
2595381878,52,2600000000,world,0.122998833656311,-0.0005133023369126,1.191932201385498
2660713650,53,2650000000,world,0.1349081397056579,-0.0016517788171768,1.2256152629852295
2694483084,54,2700000000,world,0.1499376893043518,-0.0010052351281046,1.259745717048645
2769540138,55,2750000000,world,0.1638612449169159,-0.002055024029687,1.2963767051696775
2799243268,56,2800000000,world,0.1774953603744506,-0.0016207750886678,1.330701231956482
2864323808,57,2850000000,world,0.1962686032056808,-0.0032222734298557,1.3592472076416016
2893024097,58,2900000000,world,0.2130288779735565,-0.0039321859367191,1.3936711549758911
2968891532,59,2950000000,world,0.2276543080806732,-0.0045454278588294,1.4260433912277222
2999575786,60,3000000000,world,0.2431008368730545,-0.00232774624601,1.4623758792877195
3064933406,61,3050000000,world,0.2609668374061584,-0.0021763015538454,1.498997926712036
3099722977,62,3100000000,world,0.2757676243782043,-0.0035120446700602,1.5316463708877563
3168260230,63,3150000000,world,0.2899463474750519,-0.0029871750157326,1.5673496723175049
3199423337,64,3200000000,world,0.3076194524765014,-0.0022398387081921,1.6030449867248535
3264672620,65,3250000000,world,0.3260084688663482,-0.0019533073063939,1.6366914510726929
3300655354,66,3300000000,world,0.3442054092884063,-0.0015306329587474,1.671282172203064
3373041487,67,3350000000,world,0.3657018840312958,-0.0022787752095609,1.7057700157165527
3398224452,68,3400000000,world,0.3841879367828369,-0.0004777576541528,1.7376025915145874
3475198492,69,3450000000,world,0.4025280773639679,-0.0014183851890265,1.775202751159668
3501482337,70,3500000000,world,0.4190110564231872,-0.0020806123502552,1.805977463722229
3560680383,71,3550000000,world,0.4412001967430115,0.0006358926766552,1.8399114608764648
3596550149,72,3600000000,world,0.4576452970504761,0.0008354141027666,1.8753888607025144
3663885699,73,3650000000,world,0.4785152673721313,5.2508636144921184e-05,1.9064539670944212
3704116205,74,3700000000,world,0.4966049790382385,-0.0021648067049682,1.938578963279724
3771934343,75,3750000000,world,0.5143373012542725,-0.000882240012288,1.9713016748428345
3797122247,76,3800000000,world,0.5349864363670349,-0.0016927996184676,2.0044150352478027
3865908800,77,3850000000,world,0.5603067278862,-0.0003723888657987,2.033456325531006
3896454227,78,3900000000,world,0.5774941444396973,-0.0016386792995035,2.066450834274292
3964292588,79,3950000000,world,0.5973977446556091,-0.0011906110448762,2.103248119354248
3996510341,80,4000000000,world,0.6178344488143921,-0.0017278786981478,2.1375207901000977
4068384979,81,4050000000,world,0.6386041045188904,0.0014880172675475,2.170426368713379
4094362765,82,4100000000,world,0.6540009379386902,0.002071114256978,2.203341484069824
4169738160,83,4150000000,world,0.6741541028022766,0.003306747181341,2.240220785140991
4194344732,84,4200000000,world,0.695427656173706,0.0038669302593916,2.276334285736084
4268332953,85,4250000000,world,0.7134080529212952,0.0039125001057982,2.308191299438477
4294169713,86,4300000000,world,0.7313335537910461,0.0045807538554072,2.343994140625
4362822701,87,4350000000,world,0.7520756125450134,0.0065153869800269,2.379812479019165
4398464116,88,4400000000,world,0.7698292136192322,0.0035238703712821,2.408139705657959
4466429863,89,4450000000,world,0.7863725423812866,0.0031759783159941,2.4381589889526367
4497913269,90,4500000000,world,0.8042364120483398,0.0044267098419368,2.4732351303100586
4570537767,91,4550000000,world,0.822296142578125,0.0033656174782663,2.5049524307250977
4597905082,92,4600000000,world,0.8428540825843811,0.0045186793431639,2.5373361110687256
4668491780,93,4650000000,world,0.8656430244445801,0.0050499602220952,2.5715231895446777
4704756057,94,4700000000,world,0.8832371234893799,0.0054127601906657,2.60545015335083
4764891107,95,4750000000,world,0.9025229215621948,0.0059320055879652,2.63447642326355
4801887638,96,4800000000,world,0.9218767285346984,0.0067911176010966,2.6671767234802246
4871050307,97,4850000000,world,0.9417924284934998,0.0072650494985282,2.699805498123169
4895753180,98,4900000000,world,0.9604377746582032,0.0082024540752172,2.7356173992156982
4964755280,99,4950000000,world,0.9778574109077454,0.0049658073112368,2.7638604640960693
4995995900,100,5000000000,world,0.9961815476417542,0.0058708330616354,2.79665756225586
5069276945,101,5050000000,world,1.0185043811798096,0.0057422858662903,2.831338167190552
5103677241,102,5100000000,world,1.038492202758789,0.0051013156771659,2.862069129943848
5171919720,103,5150000000,world,1.0589498281478882,0.0047924234531819,2.8924784660339355
5203187376,104,5200000000,world,1.0789674520492554,0.0062092086300253,2.923929214477539
5269398330,105,5250000000,world,1.0941641330718994,0.005464244633913,2.95870304107666
5300222619,106,5300000000,world,1.1175488233566284,0.0056758364662528,2.991870641708374
5373277000,107,5350000000,world,1.1372835636138916,0.0067673963494598,3.0247747898101807
5410936316,108,5400000000,world,1.1538840532302856,0.0063027548603713,3.058038711547852
5472177133,109,5450000000,world,1.1793915033340454,0.0101485140621662,3.094985008239746
5499135382,110,5500000000,world,1.196125626564026,0.0069785132072865,3.128216505050659
5572407535,111,5550000000,world,1.2169055938720703,0.0070899133570492,3.158482074737549
5603747224,112,5600000000,world,1.2366355657577517,0.0060255927965044,3.1913912296295166
5669004684,113,5650000000,world,1.2537415027618408,0.0063353888690471,3.223447322845459
5702256019,114,5700000000,world,1.2727738618850708,0.0069966409355401,3.2574946880340576
5774009373,115,5750000000,world,1.2917801141738892,0.0075218654237687,3.29069185256958
5804643147,116,5800000000,world,1.3151031732559204,0.0079781031236052,3.325223207473755
5864635624,117,5850000000,world,1.3352285623550415,0.0079641379415988,3.354956865310669
5906702833,118,5900000000,world,1.3495290279388428,0.0057255364954471,3.387558460235596
5974884260,119,5950000000,world,1.3709615468978882,0.0075803883373737,3.421302318572998
6000788653,120,6000000000,world,1.3912192583084106,0.0077484333887696,3.454364776611328
6073754946,121,6050000000,world,1.412251591682434,0.006189489737153,3.4858314990997314
6108609440,122,6100000000,world,1.4277039766311646,0.0049859350547194,3.519228935241699
6163985552,123,6150000000,world,1.4537642002105713,0.003061304334551,3.555406093597412
6200833006,124,6200000000,world,1.471468210220337,0.0047154589556157,3.5915205478668213
6270914901,125,6250000000,world,1.490370512008667,0.0030314484611153,3.6207892894744873
6295852177,126,6300000000,world,1.5110883712768557,0.002444609766826,3.653043270111084
6379361101,127,6350000000,world,1.530288815498352,0.0005931343184784,3.6864309310913086
6403472631,128,6400000000,world,1.549959659576416,0.0010260647395625,3.7221908569335938
6468565641,129,6450000000,world,1.5738176107406616,0.0030386429280042,3.754069805145264
6500505001,130,6500000000,world,1.587244153022766,-0.0001370533864246,3.7881767749786377
6573002315,131,6550000000,world,1.6053749322891235,-0.000611133640632,3.8205246925354
6603049022,132,6600000000,world,1.6254205703735352,0.0009644161909818,3.855706453323364
6673316571,133,6650000000,world,1.6412713527679443,-6.72262831358239e-05,3.8872556686401367
6701463455,134,6700000000,world,1.6624467372894287,-0.0009783133864402,3.920262575149536
6769559840,135,6750000000,world,1.6848071813583374,0.0022970954887568,3.95944881439209
6797590509,136,6800000000,world,1.705649733543396,0.0003273378824815,3.9894323348999023
6874761480,137,6850000000,world,1.7240372896194458,0.000917827244848,4.022829532623291
6901158186,138,6900000000,world,1.7454239130020142,-0.0013414066052064,4.055483818054199
6978354123,139,6950000000,world,1.766886830329895,-7.239845581352711e-05,4.090797424316406
7006866636,140,7000000000,world,1.7900956869125366,-0.0006684861145913,4.119009971618652
7069976423,141,7050000000,world,1.818756341934204,-0.0015699106734246,4.149179458618164
7097795263,142,7100000000,world,1.8421260118484497,-0.0008736845338717,4.179533004760742
7174367265,143,7150000000,world,1.8664170503616333,-0.0004330219817347,4.20824670791626
7210183554,144,7200000000,world,1.8898906707763672,0.0006360057741403,4.239795684814453
7270812208,145,7250000000,world,1.9205135107040403,-0.0013172156177461,4.263009071350098
7305702321,146,7300000000,world,1.9420453310012815,-0.0020572151988744,4.294536113739014
7372989495,147,7350000000,world,1.978339433670044,-0.0024863483849912,4.323200225830078
7403815253,148,7400000000,world,2.000800132751465,-0.0050422083586454,4.350251197814941
7477354614,149,7450000000,world,2.027202844619751,-0.0018238738412037,4.382375717163086
7506984369,150,7500000000,world,2.0534040927886963,-0.0037726967129856,4.4086503982543945
7573890915,151,7550000000,world,2.0781571865081787,-0.0041119395755231,4.438446998596191
7608665252,152,7600000000,world,2.103766679763794,-0.0039749410934746,4.465162754058838
7669893704,153,7650000000,world,2.130645990371704,0.0003393378574401,4.496554374694824
7706748516,154,7700000000,world,2.157139539718628,0.0017959997057914,4.521843433380127
7772204965,155,7750000000,world,2.1850621700286865,0.0017897521611303,4.549168109893799
7801606927,156,7800000000,world,2.2099883556365967,0.0004455242305994,4.576389789581299
7868274147,157,7850000000,world,2.237836599349976,0.0018105736235156,4.602643489837647
7905085013,158,7900000000,world,2.262345314025879,0.0026454082690179,4.635911464691162
7968558283,159,7950000000,world,2.287633180618286,5.606969352811575e-05,4.661614418029785
8001919917,160,8000000000,world,2.3157591819763184,0.0015200283378362,4.686550140380859
8060656992,161,8050000000,world,2.3441946506500244,0.0026079057715833,4.711100101470947
8101441280,162,8100000000,world,2.370152711868286,0.0021848902106285,4.741208553314209
8175260179,163,8150000000,world,2.3962419033050537,0.0017331710550934,4.767696380615234
8205095315,164,8200000000,world,2.421216487884521,0.001700879773125,4.798305511474609
8272961987,165,8250000000,world,2.448432445526123,0.0023216067347675,4.824174404144287
8300801119,166,8300000000,world,2.4769158363342285,0.000968053122051,4.84951114654541
8362499479,167,8350000000,world,2.505974769592285,0.0032816114835441,4.874141693115234
8399321198,168,8400000000,world,2.5311601161956787,0.0067931627854704,4.906965732574463
8474206244,169,8450000000,world,2.55986762046814,0.0041554737836122,4.929863929748535
8508992605,170,8500000000,world,2.590870857238769,0.0053153466433286,4.9503254890441895
8565251635,171,8550000000,world,2.6210532188415527,0.0017880367813631,4.976652145385742
8610648867,172,8600000000,world,2.6481823921203613,-0.0008663724875077,5.001537322998047
8677119647,173,8650000000,world,2.680987596511841,0.0018469009082764,5.022573471069336
8701877012,174,8700000000,world,2.709413528442383,0.0143888043239712,5.05211877822876
8766916766,175,8750000000,world,2.734309673309326,0.0002303060609847,5.081585884094238
8804670712,176,8800000000,world,2.766408443450928,-0.0014520488912239,5.1042962074279785
8871456118,177,8850000000,world,2.7972302436828613,0.001624921686016,5.12542724609375
8905015805,178,8900000000,world,2.825078010559082,-0.0034830521326512,5.153552055358887
8972314836,179,8950000000,world,2.856423854827881,-0.0029309601522982,5.168674468994141
9006551813,180,9000000000,world,2.887125015258789,-0.0075805857777595,5.192055702209473
9065361404,181,9050000000,world,2.917316198348999,-0.0030517512932419,5.218263149261475
9097839243,182,9100000000,world,2.9411511421203613,0.0006348395254462,5.248300075531006
9170174820,183,9150000000,world,2.971071243286133,-0.0011980249546468,5.273148536682129
9205791065,184,9200000000,world,2.999654769897461,0.0016379873268306,5.298209190368652
9272762663,185,9250000000,world,3.031046867370605,0.0048287389799952,5.321849822998047
9303078803,186,9300000000,world,3.060123920440674,0.0014931026380509,5.345685958862305
9368261543,187,9350000000,world,3.091399669647217,0.000309566501528,5.370055198669434
9406517874,188,9400000000,world,3.1242918968200684,-6.365659646689892e-05,5.387797832489014
9479954133,189,9450000000,world,3.1553378105163574,0.0060891136527061,5.4140400886535645
9505392439,190,9500000000,world,3.185074806213379,0.0096690244972705,5.439207077026367
9563076268,191,9550000000,world,3.217221260070801,0.0123654678463935,5.460075378417969
9598346932,192,9600000000,world,3.247762680053711,0.0147234881296753,5.479953765869141
9676936731,193,9650000000,world,3.27893614768982,0.0119252931326627,5.502206802368164
9704451212,194,9700000000,world,3.3115015029907227,0.0086152134463191,5.521800518035889
9773052412,195,9750000000,world,3.33858060836792,0.0084547000005841,5.5506134033203125
9801246591,196,9800000000,world,3.3689117431640625,0.0096081485971808,5.572564125061035
9869410427,197,9850000000,world,3.398104667663574,0.0086015164852142,5.591944217681885
9900905400,198,9900000000,world,3.4252519607543945,0.0061282915994524,5.620486259460449
9967533506,199,9950000000,world,3.4546380043029785,0.0055717024952173,5.642818450927734
10003786911,200,10000000000,world,3.487389326095581,0.0044316393323242,5.6634721755981445
10074202235,201,10050000000,world,3.517699718475342,0.0010685534216463,5.686387062072754
10101957371,202,10100000000,world,3.546329498291016,0.0013908259570598,5.71035099029541
10178415771,203,10150000000,world,3.580467939376831,0.0021353061310946,5.729456901550293
10211259971,204,10200000000,world,3.614485263824463,0.0068847080692648,5.748016834259033
10265856693,205,10250000000,world,3.646140575408936,0.0082998406141996,5.767565727233887
10302328927,206,10300000000,world,3.679346084594727,0.0057489918544888,5.785458087921143
10368852953,207,10350000000,world,3.714400053024292,0.0106985997408628,5.801435470581055
10403886826,208,10400000000,world,3.7476093769073486,0.004106349311769,5.813443183898926
10476264371,209,10450000000,world,3.7832283973693848,0.0070298463106155,5.827696800231934
10505817753,210,10500000000,world,3.8201441764831534,0.0091376695781946,5.839408874511719
10568519078,211,10550000000,world,3.856767654418945,0.0104091092944145,5.851378917694092
10605144315,212,10600000000,world,3.893209457397461,0.0106287226080894,5.861218452453613
10669542425,213,10650000000,world,3.925460815429688,0.0039313491433858,5.857909679412842
10696612543,214,10700000000,world,3.958794593811035,0.0022893399000167,5.865830421447754
10776141145,215,10750000000,world,3.9969186782836914,0.0015887636691331,5.870196342468262
10805123065,216,10800000000,world,4.034219264984131,0.0050522666424512,5.873579502105713
10868694593,217,10850000000,world,4.071542263031006,0.0012868661433458,5.878726005554199
10900501731,218,10900000000,world,4.109721660614014,0.0012328419834375,5.879684448242188
10969531265,219,10950000000,world,4.147051811218262,0.0088843330740928,5.878204345703125
10998967322,220,11000000000,world,4.184127807617188,0.0075497776269912,5.877828598022461
11062256263,221,11050000000,world,4.220855712890625,0.007229771465063,5.873652458190918
11102812411,222,11100000000,world,4.257820129394531,0.0069347769021987,5.868404388427734
11172608323,223,11150000000,world,4.2933759689331055,0.0056734457612037,5.864328861236572
11204069089,224,11200000000,world,4.327627182006836,0.0041378438472747,5.853991508483887
11264668565,225,11250000000,world,4.366920471191406,0.0033132508397102,5.847172260284424
11301133215,226,11300000000,world,4.404682159423828,0.0026073642075061,5.836939334869385
11361816057,227,11350000000,world,4.449765205383301,0.0056534335017204,5.831239223480225
11402670299,228,11400000000,world,4.481743812561035,0.0068229883909225,5.8165283203125
11466276071,229,11450000000,world,4.514239311218262,0.0067491233348846,5.801774024963379
11499703054,230,11500000000,world,4.549949169158936,0.0073140412569046,5.786494255065918
11565927119,231,11550000000,world,4.5876007080078125,0.0064737573266029,5.770097255706787
11601402131,232,11600000000,world,4.622317314147949,0.003000158816576,5.753176212310791
11663987881,233,11650000000,world,4.657170295715332,0.0038650557398796,5.7355570793151855
11701081320,234,11700000000,world,4.688464641571045,0.0037885904312133,5.715343952178955
11772431722,235,11750000000,world,4.723026275634766,0.0057351663708686,5.695684432983398
11800974658,236,11800000000,world,4.755423545837402,0.0050697922706604,5.675692081451416
11866741538,237,11850000000,world,4.787755012512207,0.0045335590839385,5.654952049255371
11909129904,238,11900000000,world,4.816727161407471,0.0051322802901268,5.633458137512207
11965975861,239,11950000000,world,4.8483662605285645,0.0057382062077522,5.613354682922363
12007364663,240,12000000000,world,4.879778861999512,0.0084905922412872,5.592753410339356
12076908109,241,12050000000,world,4.912613868713379,0.0079868137836456,5.572312355041504
12102102506,242,12100000000,world,4.940158367156982,0.0048085898160934,5.548562526702881
12168611284,243,12150000000,world,4.97139310836792,0.0056250393390655,5.528020858764648
12202163575,244,12200000000,world,5.002592086791992,0.004238799214363,5.507352828979492
12261423047,245,12250000000,world,5.031806945800781,0.0007686652243137,5.486259460449219
12298205880,246,12300000000,world,5.065623283386231,0.0009060055017471,5.465382099151611
12372939954,247,12350000000,world,5.094741344451904,-0.0013552643358707,5.443990707397461
12398338065,248,12400000000,world,5.129856109619141,-0.0012392476201057,5.424471855163574
12463181453,249,12450000000,world,5.160274982452393,-0.0012322552502155,5.403415679931641
12500710350,250,12500000000,world,5.193830966949463,-0.001732787117362,5.383058071136475
12573071738,251,12550000000,world,5.225329399108887,0.0001545436680316,5.361927509307861
12601761518,252,12600000000,world,5.256716251373291,0.0014908090233802,5.340621948242188
12666717926,253,12650000000,world,5.2856855392456055,0.0015007331967353,5.319374561309815
12697507366,254,12700000000,world,5.318297863006592,0.0025487318634986,5.298648834228516
12767146045,255,12750000000,world,5.350200176239014,0.0026840530335903,5.277885437011719
12802005711,256,12800000000,world,5.380290508270264,0.0022648386657238,5.257161140441895
12868708070,257,12850000000,world,5.413829326629639,0.0020444802939891,5.236896991729736
12911360600,258,12900000000,world,5.444520473480225,0.0027530044317245,5.216516017913818
12967118524,259,12950000000,world,5.476637363433838,0.0022317096590995,5.1957550048828125
13001377861,260,13000000000,world,5.508936882019043,0.0023009665310382,5.175032615661621
13067790577,261,13050000000,world,5.539572715759277,0.0011874660849571,5.15403938293457
13103129980,262,13100000000,world,5.572385787963867,0.00243866071105,5.133269309997559
13168688060,263,13150000000,world,5.602954864501953,0.0004074908792972,5.111706256866455
13211389391,264,13200000000,world,5.636356830596924,0.0020484626293182,5.09135627746582
13278537332,265,13250000000,world,5.6683759689331055,0.0013969875872135,5.070621490478516
13297416581,266,13300000000,world,5.699811935424805,0.0004107095301151,5.049318313598633
13364766216,267,13350000000,world,5.72948694229126,0.001619454473257,5.02878475189209
13405687934,268,13400000000,world,5.761144638061523,-0.0005247332155704,5.007798194885254
13467881674,269,13450000000,world,5.796175003051758,0.0014269649982452,4.987757682800293
13504729896,270,13500000000,world,5.8278398513793945,0.0027185976505279,4.967377662658691
13574150888,271,13550000000,world,5.860161781311035,0.0019804202020168,4.947258949279785
13598814010,272,13600000000,world,5.893810749053955,-0.0017045363783836,4.926929473876953
13669837679,273,13650000000,world,5.924800872802734,-0.0016084313392639,4.906064033508301
13698584931,274,13700000000,world,5.957684516906738,-0.0021874569356441,4.885078430175781
13772993726,275,13750000000,world,5.990012645721436,-0.0025252941995859,4.865740776062012
13801871854,276,13800000000,world,6.020926475524902,-0.0015446413308382,4.844222068786621
13871986269,277,13850000000,world,6.05656623840332,-0.0049740215763449,4.820128440856934
13905081697,278,13900000000,world,6.088468551635742,-0.0032443646341562,4.79947566986084
13975266238,279,13950000000,world,6.12077522277832,-0.0045733721926808,4.779074668884277
14003129973,280,14000000000,world,6.1529693603515625,-0.0060512162744998,4.758197784423828
14067319566,281,14050000000,world,6.187643051147461,-0.0043156342580914,4.738112449645996
14099815438,282,14100000000,world,6.216344833374023,-0.0062630008906126,4.717759132385254
14174089372,283,14150000000,world,6.2466721534729,-0.0073442813009023,4.695045471191406
14204281689,284,14200000000,world,6.278273582458496,-0.0074648624286055,4.674093246459961
14273209216,285,14250000000,world,6.308068752288818,-0.005512305535376,4.651556015014648
14304835882,286,14300000000,world,6.339896202087402,-0.0055694784969091,4.62829065322876
14369177463,287,14350000000,world,6.366514205932617,-0.0040637077763676,4.604447364807129
14398510660,288,14400000000,world,6.396005153656006,-0.0044754045084118,4.581265449523926
14461617085,289,14450000000,world,6.424962520599365,-0.0041594952344894,4.55646276473999
14503192200,290,14500000000,world,6.453221321105957,-0.0024405382573604,4.530693054199219
14568335910,291,14550000000,world,6.481249809265137,-0.0026816893368959,4.504148483276367
14599815544,292,14600000000,world,6.509410858154297,-0.0023477431386709,4.477718830108643
14671269942,293,14650000000,world,6.533567428588867,-0.0014701560139656,4.44844913482666
14699562509,294,14700000000,world,6.555803298950195,-0.0015465598553419,4.424229621887207
14764693975,295,14750000000,world,6.577788829803467,0.0023497398942708,4.397556304931641
14802992505,296,14800000000,world,6.616847991943359,0.0014568194746971,4.3642449378967285
14872487543,297,14850000000,world,6.640426635742188,0.0011950656771659,4.333917617797852
14902045211,298,14900000000,world,6.6632513999938965,0.0018971152603626,4.304088115692139
14967429259,299,14950000000,world,6.685910224914551,0.0032311156392097,4.276691436767578
15004309043,300,15000000000,world,6.709470748901367,0.0019931457936763,4.246427059173584
15071940786,301,15050000000,world,6.728933811187744,0.001922708004713,4.214071273803711
15098052244,302,15100000000,world,6.7512640953063965,-9.861961007118224e-05,4.183037757873535
15172478057,303,15150000000,world,6.773090839385986,0.0044248662889003,4.151483535766602
15206180787,304,15200000000,world,6.7977294921875,0.0050890073180198,4.1247429847717285
15269102880,305,15250000000,world,6.818089008331299,0.0054641216993331,4.094213485717773
15296616731,306,15300000000,world,6.837162971496582,0.0032241716980934,4.062108993530273
15371390066,307,15350000000,world,6.860654830932617,0.006413634866476,4.0308990478515625
15410713433,308,15400000000,world,6.882058143615723,0.0067013800144195,3.999744415283203
15479922145,309,15450000000,world,6.900211334228516,0.0059705786406993,3.963663339614868
15511941762,310,15500000000,world,6.923868656158447,0.002744760364294,3.937897205352783
15568547128,311,15550000000,world,6.939011096954346,0.0040419213473796,3.908895969390869
15601109954,312,15600000000,world,6.960137367248535,0.0063520930707454,3.877627372741699
15688200198,313,15650000000,world,6.981839179992676,0.0046393200755119,3.846827507019043
15713614307,314,15700000000,world,7.006600856781006,0.0064915791153907,3.815298080444336
15771582705,315,15750000000,world,7.020797252655029,0.0024318471550941,3.785535573959351
15804206927,316,15800000000,world,7.04828691482544,0.0037247501313686,3.752729892730713
15872850641,317,15850000000,world,7.0689215660095215,0.0013536885380744,3.722599506378174
15904271925,318,15900000000,world,7.10020637512207,0.0020671598613262,3.687538146972656
15973686105,319,15950000000,world,7.120042324066162,0.0031809285283088,3.6586928367614746
15996159896,320,16000000000,world,7.138833045959473,-7.7076256275177e-05,3.631192684173584
16066892331,321,16050000000,world,7.160717010498047,0.0004410147666931,3.59923791885376
16103430262,322,16100000000,world,7.182258605957031,0.0019367970526218,3.567544460296631
16175351616,323,16150000000,world,7.20559549331665,0.0053644925355911,3.537496328353882
16207477237,324,16200000000,world,7.226016998291016,0.0017039105296134,3.5049052238464355
16278485692,325,16250000000,world,7.2450079917907715,0.0012944415211677,3.475113868713379
16297855280,326,16300000000,world,7.267996311187744,0.0048529207706451,3.4439857006073
16365467927,327,16350000000,world,7.288928508758545,0.0026585422456264,3.4158976078033447
16402369204,328,16400000000,world,7.315939426422119,0.00393558293581,3.381912469863892
16463985397,329,16450000000,world,7.336429595947266,0.0028989352285861,3.3533759117126465
16498109275,330,16500000000,world,7.360158443450928,0.0042264647781848,3.3195464611053467
16575374412,331,16550000000,world,7.38040828704834,0.0027843043208122,3.291139602661133
16601257124,332,16600000000,world,7.402831077575684,0.0037268623709678,3.2597477436065674
16671237615,333,16650000000,world,7.426249980926514,0.0040057338774204,3.2274651527404785
16704680750,334,16700000000,world,7.445121765136719,0.0035677030682563,3.19723916053772
16769370992,335,16750000000,world,7.467617034912109,0.0029150173068046,3.168102264404297
16804159089,336,16800000000,world,7.488032341003418,0.0022786036133766,3.137270212173462
16866494852,337,16850000000,world,7.51936674118042,0.0027684494853019,3.099001169204712
16905756785,338,16900000000,world,7.540295600891113,0.0037837140262126,3.0676183700561523
16975606887,339,16950000000,world,7.5606689453125,0.0013148859143257,3.038151741027832
17009595486,340,17000000000,world,7.585037708282471,0.0022862963378429,3.0057761669158936
17072063815,341,17050000000,world,7.605264663696289,0.0017992220818996,2.9756016731262207
17107515110,342,17100000000,world,7.627338886260986,0.0017254911363124,2.944288730621338
17175009016,343,17150000000,world,7.651740550994873,0.0054705552756786,2.908479928970337
17207326221,344,17200000000,world,7.670154094696045,0.0010870322585105,2.8832242488861084
17279636608,345,17250000000,world,7.699526786804199,0.0067878291010856,2.8417818546295166
17301957527,346,17300000000,world,7.718214511871338,0.0036293491721153,2.8132665157318115
17376916695,347,17350000000,world,7.740035057067871,0.0045048147439956,2.7836039066314697
17406531255,348,17400000000,world,7.762130737304687,0.0041282176971435,2.7520132064819336
17483464496,349,17450000000,world,7.785900115966797,0.0049143321812152,2.7190470695495605
17503306105,350,17500000000,world,7.807862281799316,0.0066667720675468,2.688443660736084
17578183901,351,17550000000,world,7.830664157867432,0.0058278962969779,2.658440113067627
17608144097,352,17600000000,world,7.850753784179687,0.0083086118102073,2.62504506111145
17678014661,353,17650000000,world,7.866064071655273,0.0041822865605354,2.601346254348755
17703146941,354,17700000000,world,7.891260147094727,0.0052404515445232,2.5560550689697266
17773294759,355,17750000000,world,7.910988807678223,0.008871454745531,2.5186891555786133
17801474835,356,17800000000,world,7.928840637207031,0.0078640840947628,2.4840521812438965
17874084148,357,17850000000,world,7.942273139953613,0.0083579234778881,2.451427936553955
17900443015,358,17900000000,world,7.956245422363281,0.0089242979884147,2.4161572456359863
17966841957,359,17950000000,world,7.969266891479492,0.0101935118436813,2.383924961090088
18014175598,360,18000000000,world,7.979515075683594,0.0098320171236991,2.3509223461151123
18066875873,361,18050000000,world,7.99317455291748,0.0121925733983516,2.304307222366333
18101290815,362,18100000000,world,7.996461868286133,0.008319541811943,2.2771453857421875
18169904189,363,18150000000,world,8.006258964538574,0.0108977630734443,2.2334344387054443
18202492731,364,18200000000,world,8.016115188598633,0.0130176991224288,2.189744234085083
18271287812,365,18250000000,world,8.02324104309082,0.0127713605761528,2.1539907455444336
18308084180,366,18300000000,world,8.025012016296387,0.0133502706885337,2.1109368801116943
18376857179,367,18350000000,world,8.027900695800781,0.0142499320209026,2.0772392749786377
18409385260,368,18400000000,world,8.029149055480957,0.0161023698747158,2.043426990509033
18474806844,369,18450000000,world,8.026920318603516,0.0146458595991134,2.0024309158325195
18502696853,370,18500000000,world,8.024496078491211,0.0160827673971653,1.9692778587341309
18571061346,371,18550000000,world,8.018184661865234,0.0163258239626884,1.92913818359375
18604990999,372,18600000000,world,8.015192985534668,0.0193482488393783,1.890486717224121
18665906935,373,18650000000,world,8.001686096191406,0.0206704847514629,1.854585647583008
18706311519,374,18700000000,world,7.995092391967773,0.0205929726362228,1.8211259841918943
18769491838,375,18750000000,world,7.980446815490723,0.0143674612045288,1.794830322265625
18802087162,376,18800000000,world,7.969978332519531,0.0152257233858108,1.7587823867797852
18869384596,377,18850000000,world,7.958578109741211,0.0177902206778526,1.7209272384643557
18894719871,378,18900000000,world,7.947274684906006,0.020241729915142,1.6898131370544434
18970263312,379,18950000000,world,7.937131404876709,0.0191800370812416,1.6443166732788086
19000857764,380,19000000000,world,7.923565864562988,0.0128015018999576,1.6117544174194336
19067294054,381,19050000000,world,7.904979705810547,0.0147247426211833,1.5779151916503906
19101354003,382,19100000000,world,7.88973331451416,0.0129664801061153,1.5474252700805664
19177932502,383,19150000000,world,7.865668296813965,0.0137457028031349,1.5107555389404297
19204507055,384,19200000000,world,7.842060089111328,0.0200600326061248,1.4793548583984375
19263319953,385,19250000000,world,7.81920051574707,0.0153675898909568,1.457200050354004
19302138625,386,19300000000,world,7.8014092445373535,0.0178577676415443,1.4268865585327148
19368379761,387,19350000000,world,7.772394180297852,0.0170392394065856,1.373003005981445
19397546892,388,19400000000,world,7.749006271362305,0.0169345512986183,1.3419713973999023
19461522236,389,19450000000,world,7.727217197418213,0.0168919786810874,1.309931755065918
19504767791,390,19500000000,world,7.701868057250977,0.0205070227384567,1.2761659622192385
19564934975,391,19550000000,world,7.680542945861816,0.0208529755473136,1.245011329650879
19598877420,392,19600000000,world,7.658090591430664,0.0212382487952709,1.2156257629394531
19673224023,393,19650000000,world,7.639220237731934,0.0192559882998466,1.1879510879516602
19701853503,394,19700000000,world,7.616946220397949,0.0176950171589851,1.1570711135864258
19766129497,395,19750000000,world,7.596638202667236,0.0206377282738685,1.1240777969360352
19798501637,396,19800000000,world,7.569442272186279,0.020599141716957,1.0916070938110352
19872523735,397,19850000000,world,7.550487518310547,0.0255920812487602,1.0623884201049805
19897051466,398,19900000000,world,7.52629280090332,0.0237932726740837,1.0298566818237305
19968289950,399,19950000000,world,7.505615234375,0.0235611200332641,0.9987831115722656
20002520281,400,20000000000,world,7.483016967773437,0.0264306813478469,0.9628419876098632
20062355730,401,20050000000,world,7.460161209106445,0.0269178375601768,0.9327306747436525
20108363725,402,20100000000,world,7.438446998596191,0.0264149382710456,0.9017734527587892
20171054708,403,20150000000,world,7.417821884155273,0.0247879028320312,0.8701581954956055
20197670845,404,20200000000,world,7.394721031188965,0.0226340666413307,0.839329719543457
20266362663,405,20250000000,world,7.372747898101807,0.024300530552864,0.8073940277099609
20300844225,406,20300000000,world,7.351646900177002,0.0250351652503013,0.7758684158325195
20367326996,407,20350000000,world,7.330097198486328,0.0277256369590759,0.7429256439208984
20410539378,408,20400000000,world,7.3050537109375,0.0259489566087722,0.7120146751403809
20480733416,409,20450000000,world,7.283486843109131,0.0298554003238677,0.6720447540283203
20501788826,410,20500000000,world,7.260919570922852,0.0302980728447437,0.6406435966491699
20566442080,411,20550000000,world,7.237744331359863,0.0295972675085067,0.6102170944213867
20609547869,412,20600000000,world,7.216019630432129,0.0309854298830032,0.5785903930664062
20679798547,413,20650000000,world,7.198955535888672,0.030921421945095,0.5449800491333008
20700061932,414,20700000000,world,7.176030158996582,0.0299913138151168,0.5130715370178223
20792826576,415,20750000000,world,7.155037879943848,0.0300003886222839,0.4807877540588379
20816143306,416,20800000000,world,7.131768226623535,0.0315938629209995,0.4487533569335937
20887629638,417,20850000000,world,7.110712051391602,0.0320606939494609,0.4180722236633301
20913679096,418,20900000000,world,7.087925910949707,0.032546192407608,0.3857860565185547
20968849836,419,20950000000,world,7.067492961883545,0.031434990465641,0.3544621467590332
21004434954,420,21000000000,world,7.047553062438965,0.031087189912796,0.3243904113769531
21073446137,421,21050000000,world,7.026836395263672,0.0311597734689712,0.293032169342041
21105698696,422,21100000000,world,7.0054473876953125,0.0311801433563232,0.2606983184814453
21172769798,423,21150000000,world,6.980354309082031,0.0338252373039722,0.2234992980957031
21209638885,424,21200000000,world,6.956565856933594,0.0344722867012023,0.1916913986206054
21277119304,425,21250000000,world,6.9356794357299805,0.035293772816658,0.1589798927307129
21304868054,426,21300000000,world,6.913459777832031,0.0345575921237468,0.1288743019104004
21391959319,427,21350000000,world,6.891468524932861,0.0349397882819175,0.096872329711914
21417985436,428,21400000000,world,6.869549751281738,0.0355599969625473,0.0636534690856933
21478002047,429,21450000000,world,6.843029975891113,0.0357138216495513,0.0322341918945312
21499803223,430,21500000000,world,6.818053722381592,0.0376003943383693,-0.0012741088867187
21575680672,431,21550000000,world,6.797675132751465,0.0366657339036464,-0.0318188667297363
21599490143,432,21600000000,world,6.776143550872803,0.0376388579607009,-0.0641803741455078
21669395752,433,21650000000,world,6.753034114837647,0.0362368375062942,-0.0952415466308593
21702105852,434,21700000000,world,6.731712818145752,0.0377315655350685,-0.123180866241455
21769374772,435,21750000000,world,6.708891868591309,0.0364616364240646,-0.1592288017272949
21803262473,436,21800000000,world,6.687328815460205,0.0371105037629604,-0.1933836936950683
21871685471,437,21850000000,world,6.664523124694824,0.0383809432387352,-0.2242121696472168
21905859984,438,21900000000,world,6.643714904785156,0.0378399118781089,-0.2563419342041015
21968012509,439,21950000000,world,6.620495796203613,0.0378023087978363,-0.2885022163391113
22005199998,440,22000000000,world,6.600572109222412,0.0383817516267299,-0.3203620910644531
22074340550,441,22050000000,world,6.579573631286621,0.0395544692873954,-0.3533163070678711
22101536176,442,22100000000,world,6.557339668273926,0.0387496724724769,-0.3816614151000976
22172306898,443,22150000000,world,6.534677028656006,0.0369903407990932,-0.4137473106384277
22202628048,444,22200000000,world,6.5117363929748535,0.0371821075677871,-0.4472603797912597
22269724783,445,22250000000,world,6.490752220153809,0.0363840274512767,-0.4756889343261719
22299569132,446,22300000000,world,6.469529628753662,0.0368921123445034,-0.5099248886108398
22373328552,447,22350000000,world,6.447601318359375,0.0393553972244262,-0.5407476425170898
22406316225,448,22400000000,world,6.42708683013916,0.0387998484075069,-0.5739688873291016
22475498842,449,22450000000,world,6.40146541595459,0.0404852069914341,-0.6024351119995117
22506658500,450,22500000000,world,6.384014129638672,0.0397802926599979,-0.6303806304931641
22574610997,451,22550000000,world,6.360939979553223,0.0410448536276817,-0.662381649017334
22608065343,452,22600000000,world,6.336068630218506,0.0408830530941486,-0.6893520355224609
22684123053,453,22650000000,world,6.312108516693115,0.0414429381489753,-0.7200803756713867
22714573353,454,22700000000,world,6.286279678344727,0.0433173365890979,-0.7490372657775879
22773952273,455,22750000000,world,6.261308670043945,0.0424349680542945,-0.7779245376586914
22804083640,456,22800000000,world,6.234354019165039,0.0442222170531749,-0.804995059967041
22875769280,457,22850000000,world,6.208180904388428,0.0439463928341865,-0.8305878639221191
22905859102,458,22900000000,world,6.1805500984191895,0.0434551090002059,-0.8571076393127441
22974453731,459,22950000000,world,6.152571678161621,0.0437370613217353,-0.881828784942627
23005321300,460,23000000000,world,6.1234540939331055,0.0433474592864513,-0.9051661491394044
23063646716,461,23050000000,world,6.093727111816406,0.0458058789372444,-0.928946018218994
23119830222,462,23100000000,world,6.065041542053223,0.0475174561142921,-0.954707145690918
23177004234,463,23150000000,world,6.035266876220703,0.0457395389676094,-0.975043773651123
23209154776,464,23200000000,world,6.00457763671875,0.0461630746722221,-0.9966883659362792
23273041248,465,23250000000,world,5.974103927612305,0.0465641841292381,-1.0207505226135254
23310340308,466,23300000000,world,5.930405139923096,0.0468840450048446,-1.0515971183776855
23375653092,467,23350000000,world,5.900087833404541,0.0461037829518318,-1.075754165649414
23413427200,468,23400000000,world,5.868380069732666,0.0484331995248794,-1.0959196090698242
23471908665,469,23450000000,world,5.839552402496338,0.0472019128501415,-1.1189117431640625
23513542826,470,23500000000,world,5.807038307189941,0.045241829007864,-1.141892433166504
23585133820,471,23550000000,world,5.773919105529785,0.0444644540548324,-1.1649894714355469
23606587495,472,23600000000,world,5.741849899291992,0.0450281649827957,-1.187654972076416
23682599622,473,23650000000,world,5.712132453918457,0.0470284447073936,-1.2089991569519043
23726996256,474,23700000000,world,5.679489135742188,0.0481634065508842,-1.2297301292419434
23782251713,475,23750000000,world,5.648782730102539,0.0486277714371681,-1.2464842796325684
23810732938,476,23800000000,world,5.613315105438232,0.0471142828464508,-1.2624335289001465
23879845973,477,23850000000,world,5.574985027313232,0.0480404794216156,-1.2790732383728027
23913237535,478,23900000000,world,5.533720970153809,0.0473942756652832,-1.2967004776000977
23964851077,479,23950000000,world,5.496953964233398,0.0506775863468647,-1.3098516464233398
24004798951,480,24000000000,world,5.461731910705566,0.0506087243556976,-1.3201537132263184
24066218069,481,24050000000,world,5.42722749710083,0.0513640344142913,-1.3327441215515137
24101197039,482,24100000000,world,5.388978958129883,0.0524408258497715,-1.3438425064086914
24166932248,483,24150000000,world,5.353148460388184,0.053429901599884,-1.3493971824645996
24204182500,484,24200000000,world,5.315248489379883,0.0534433238208293,-1.366567611694336
24272064307,485,24250000000,world,5.275113105773926,0.0583946891129016,-1.378462314605713
24306673144,486,24300000000,world,5.237115383148193,0.0569479390978813,-1.391611099243164
24386931346,487,24350000000,world,5.202144622802734,0.0573804788291454,-1.3987703323364258
24420515481,488,24400000000,world,5.167047023773193,0.0563940405845642,-1.4113798141479492
24482660294,489,24450000000,world,5.128530502319336,0.0570842400193214,-1.4181113243103027
24521717307,490,24500000000,world,5.093921661376953,0.05727981030941,-1.4259767532348633
24589143317,491,24550000000,world,5.055245876312256,0.0583292357623577,-1.432783603668213
24611758587,492,24600000000,world,5.021239280700684,0.0551110655069351,-1.440436840057373
24669015162,493,24650000000,world,4.980274677276611,0.0558915026485919,-1.442366123199463
24702981585,494,24700000000,world,4.94443941116333,0.0561178177595138,-1.445195198059082
24784725101,495,24750000000,world,4.906822204589844,0.0581585690379142,-1.442063808441162
24806625370,496,24800000000,world,4.8665924072265625,0.0589818954467773,-1.443793773651123
24871187339,497,24850000000,world,4.831450462341309,0.0587768331170082,-1.439629077911377
24908456734,498,24900000000,world,4.794167995452881,0.0588415153324604,-1.437380313873291
24968000714,499,24950000000,world,4.747104167938232,0.060471337288618,-1.4360971450805664
25004406467,500,25000000000,world,4.707972526550293,0.0620280504226684,-1.43300199508667
25072169446,501,25050000000,world,4.670490264892578,0.0627214759588241,-1.4314184188842771
25110376161,502,25100000000,world,4.634385108947754,0.0616346821188926,-1.4295849800109863
25168982047,503,25150000000,world,4.594637870788574,0.0638139024376869,-1.4252614974975586
25205941865,504,25200000000,world,4.554924964904785,0.0642503574490547,-1.4221572875976562
25267721095,505,25250000000,world,4.517976760864258,0.0659545287489891,-1.420555591583252
25297113903,506,25300000000,world,4.478910446166992,0.0662916004657745,-1.4194512367248535
25379353292,507,25350000000,world,4.443399906158447,0.0665871500968933,-1.4130072593688965
25401039119,508,25400000000,world,4.406633377075195,0.0663730651140213,-1.4129753112792969
25469623905,509,25450000000,world,4.370050430297852,0.0653382390737533,-1.411543846130371
25507677945,510,25500000000,world,4.325461387634277,0.0655763298273086,-1.4106345176696775
25568592299,511,25550000000,world,4.285467147827148,0.0665137991309166,-1.409163475036621
25601767033,512,25600000000,world,4.248527526855469,0.0671773701906204,-1.4074735641479492
25678650647,513,25650000000,world,4.21188497543335,0.0680757015943527,-1.4036574363708496
25708092832,514,25700000000,world,4.172493934631348,0.0690921396017074,-1.402522325515747
25770669037,515,25750000000,world,4.135100364685059,0.0669550746679306,-1.398742914199829
25828562844,516,25800000000,world,4.098155975341797,0.0668422132730484,-1.3972351551055908
25878329048,517,25850000000,world,4.061493396759033,0.067948006093502,-1.394953966140747
25915198631,518,25900000000,world,4.022655963897705,0.0675397813320159,-1.3924269676208496
25995306723,519,25950000000,world,3.9857969284057617,0.0681023001670837,-1.3890235424041748
26034011826,520,26000000000,world,3.9479012489318848,0.0676966458559036,-1.388133525848389
26073009203,521,26050000000,world,3.910638332366944,0.0683085545897483,-1.384098768234253
26121495167,522,26100000000,world,3.8737833499908447,0.0679159387946128,-1.3822481632232666
26184265766,523,26150000000,world,3.8344688415527344,0.0684901028871536,-1.379619836807251
26207506694,524,26200000000,world,3.7987961769104,0.0688056647777557,-1.37593412399292
26280315163,525,26250000000,world,3.7586402893066406,0.0695627480745315,-1.374131679534912
26307370362,526,26300000000,world,3.721556663513184,0.0697328150272369,-1.3711330890655518
26377302953,527,26350000000,world,3.683382511138916,0.0692253485321998,-1.368380069732666
26418521967,528,26400000000,world,3.6468374729156494,0.0696425437927246,-1.3669328689575195
26487045324,529,26450000000,world,3.609284400939941,0.0699118971824646,-1.364011526107788
26510871263,530,26500000000,world,3.571702003479004,0.0708302110433578,-1.3615670204162598
26573763739,531,26550000000,world,3.534553050994873,0.0704197436571121,-1.3582804203033447
26607597277,532,26600000000,world,3.4940223693847656,0.0704223290085792,-1.3546855449676514
26669742722,533,26650000000,world,3.4618287086486816,0.0701018422842025,-1.3504259586334229
26706147870,534,26700000000,world,3.42417573928833,0.0699330940842628,-1.3474421501159668
26774261775,535,26750000000,world,3.387059211730957,0.0692703500390052,-1.3441791534423828
26800776630,536,26800000000,world,3.348080635070801,0.0700804889202117,-1.341543674468994
26886242973,537,26850000000,world,3.31025505065918,0.070900522172451,-1.3370966911315918
26924168419,538,26900000000,world,3.271869659423828,0.0709743574261665,-1.334702730178833
26974518782,539,26950000000,world,3.23431134223938,0.0708310306072235,-1.331474542617798
27013421482,540,27000000000,world,3.1957664489746094,0.0717643946409225,-1.3279972076416016
27073182203,541,27050000000,world,3.1588635444641118,0.0713098645210266,-1.3253962993621826
27107978644,542,27100000000,world,3.120213747024536,0.0712632238864898,-1.3226752281188965
27172636102,543,27150000000,world,3.084137439727783,0.0730591192841529,-1.31992506980896
27203791251,544,27200000000,world,3.0440540313720703,0.0726308077573776,-1.3182969093322754
27269180663,545,27250000000,world,3.0084567070007324,0.0758315101265907,-1.3132126331329346
27309685284,546,27300000000,world,2.968879222869873,0.0749451890587806,-1.3107469081878662
27368975394,547,27350000000,world,2.931732654571533,0.0743726193904876,-1.3097295761108398
27401967207,548,27400000000,world,2.896888732910156,0.0751265808939933,-1.3045289516448977
27472103009,549,27450000000,world,2.852438449859619,0.0745119005441665,-1.294025421142578
27501501036,550,27500000000,world,2.809443473815918,0.074083425104618,-1.2937159538269043
27567224880,551,27550000000,world,2.772653102874756,0.076047234237194,-1.2918586730957031
27611499478,552,27600000000,world,2.736786365509033,0.0753767266869545,-1.289297103881836
27665205069,553,27650000000,world,2.699094295501709,0.0726448521018028,-1.2851803302764893
27703543607,554,27700000000,world,2.6600542068481445,0.0755727589130401,-1.2799458503723145
27772979574,555,27750000000,world,2.621397018432617,0.0772273689508438,-1.2757704257965088
27805451455,556,27800000000,world,2.5871739387512207,0.0726865455508232,-1.2766945362091064
27865936053,557,27850000000,world,2.5583243370056152,0.0739533379673957,-1.2688355445861816
27908207828,558,27900000000,world,2.521303176879883,0.0767620801925659,-1.2644829750061035
27970670742,559,27950000000,world,2.4811806678771973,0.0714603960514068,-1.2641069889068604
27999657793,560,28000000000,world,2.4432902336120605,0.0712075904011726,-1.2603154182434082
28068834606,561,28050000000,world,2.4060280323028564,0.0742202550172805,-1.2591609954833984
28107843870,562,28100000000,world,2.36674165725708,0.0720644295215606,-1.2565324306488037
28167961580,563,28150000000,world,2.333141326904297,0.0727648884057998,-1.2520921230316162
28209737718,564,28200000000,world,2.293072462081909,0.0737767666578292,-1.2498915195465088
28271040223,565,28250000000,world,2.255403518676758,0.0740893185138702,-1.2473423480987549
28302444795,566,28300000000,world,2.216449737548828,0.0763869136571884,-1.244575262069702
28382221720,567,28350000000,world,2.1774728298187256,0.0758663043379783,-1.2443568706512451
28406552933,568,28400000000,world,2.1399168968200684,0.0780439749360084,-1.2404296398162842
28481976502,569,28450000000,world,2.0992751121521,0.0735601335763931,-1.2440948486328125
28525354891,570,28500000000,world,2.064126968383789,0.0752650275826454,-1.2395789623260498
28563212896,571,28550000000,world,2.0235090255737305,0.0798711106181144,-1.23663592338562
28604260124,572,28600000000,world,1.9835929870605469,0.0818822160363197,-1.235204577445984
28667530034,573,28650000000,world,1.946968674659729,0.0834688991308212,-1.2308809757232666
28706093528,574,28700000000,world,1.9121665954589844,0.0795889049768447,-1.2245736122131348
28775504369,575,28750000000,world,1.8691754341125488,0.0813696011900901,-1.227798581123352
28815637236,576,28800000000,world,1.831792116165161,0.0792071372270584,-1.2245491743087769
28877002866,577,28850000000,world,1.7951689958572388,0.0810215845704078,-1.2216064929962158
28910542231,578,28900000000,world,1.7572007179260254,0.0822074860334396,-1.220892310142517
28972541358,579,28950000000,world,1.7216413021087646,0.080982930958271,-1.2171070575714111
29007595418,580,29000000000,world,1.6796379089355469,0.082914337515831,-1.2146517038345337
29071871252,581,29050000000,world,1.638104796409607,0.0797929316759109,-1.2143114805221558
29112992342,582,29100000000,world,1.6000622510910034,0.0797054916620254,-1.2050422430038452
29176414102,583,29150000000,world,1.561758279800415,0.0804499611258506,-1.196027755737305
29210277669,584,29200000000,world,1.525836706161499,0.0747910365462303,-1.190142035484314
29276387049,585,29250000000,world,1.4928781986236572,0.0816851481795311,-1.1772924661636353
29303841029,586,29300000000,world,1.458409070968628,0.079553835093975,-1.168712854385376
29374462102,587,29350000000,world,1.42170250415802,0.0781935229897499,-1.1534829139709473
29407768906,588,29400000000,world,1.3859057426452637,0.0810952112078666,-1.1356916427612305
29479919435,589,29450000000,world,1.3479080200195312,0.0840287208557128,-1.1246216297149658
29505140202,590,29500000000,world,1.3131368160247805,0.0817820355296135,-1.105240821838379
29567569132,591,29550000000,world,1.2818450927734375,0.0776431187987327,-1.088199019432068
29599280908,592,29600000000,world,1.251262664794922,0.0794000625610351,-1.0682624578475952
29671696822,593,29650000000,world,1.2209128141403198,0.08064866065979,-1.0509328842163086
29710359839,594,29700000000,world,1.185836672782898,0.0784882679581642,-1.0279663801193235
29764356317,595,29750000000,world,1.1509264707565308,0.0813082903623581,-1.0017473697662354
29802915958,596,29800000000,world,1.1215306520462036,0.0796237215399742,-0.9819738268852234
29863342491,597,29850000000,world,1.0916038751602173,0.0791206657886505,-0.9605594873428344
29899066136,598,29900000000,world,1.052307367324829,0.0812274515628814,-0.943817138671875
29969474757,599,29950000000,world,1.0217198133468628,0.080913096666336,-0.9212468266487122
29998065110,600,30000000000,world,0.9935814142227172,0.0810615122318267,-0.8990210890769958
30060049838,601,30050000000,world,0.9569051265716552,0.083635076880455,-0.8746683597564697
30105995474,602,30100000000,world,0.9301252961158752,0.0839318931102752,-0.8509358167648315
30163137090,603,30150000000,world,0.8987904191017151,0.083205722272396,-0.8282200694084167
30201521273,604,30200000000,world,0.8710219860076904,0.0843837261199951,-0.8072591423988342
30263486223,605,30250000000,world,0.8373913168907166,0.0839153528213501,-0.7831760048866272
30300085954,606,30300000000,world,0.8163625001907349,0.0842316150665283,-0.7529079914093018
30370663756,607,30350000000,world,0.7807049751281738,0.0887631922960281,-0.7333515882492065
30403367294,608,30400000000,world,0.7491488456726074,0.0876851230859756,-0.7101629972457886
30469354146,609,30450000000,world,0.7206915020942688,0.0869339853525161,-0.6874339580535889
30496282762,610,30500000000,world,0.6885128021240234,0.0872163921594619,-0.6649328470230103
30569718189,611,30550000000,world,0.6567890048027039,0.0899403989315033,-0.6424156427383423
30600036324,612,30600000000,world,0.6276617050170898,0.0900778323411941,-0.619152307510376
30675078807,613,30650000000,world,0.5962692499160767,0.0892651975154876,-0.5986213684082031
30703843594,614,30700000000,world,0.5644115805625916,0.0925748720765113,-0.5767475962638855
30764800786,615,30750000000,world,0.525260329246521,0.0993717908859252,-0.5532606840133667
30800979726,616,30800000000,world,0.4921036064624786,0.0965893641114234,-0.5316916108131409
30880844043,617,30850000000,world,0.4623507559299469,0.0971858352422714,-0.5091757774353027
30909083272,618,30900000000,world,0.4335577487945556,0.097243420779705,-0.4855241477489471
30969044214,619,30950000000,world,0.4006411433219909,0.0959403365850448,-0.4628636837005615
31003249837,620,31000000000,world,0.3707174956798553,0.0976423993706703,-0.4414039552211761
31081667481,621,31050000000,world,0.3378333747386932,0.097836785018444,-0.4200989007949829
31114576339,622,31100000000,world,0.3065531849861145,0.0974531546235084,-0.3980460166931152
31171360523,623,31150000000,world,0.2781546115875244,0.0986059606075286,-0.3763130307197571
31199404377,624,31200000000,world,0.243997648358345,0.0990701541304588,-0.3516860902309418
31268668104,625,31250000000,world,0.2170578390359878,0.0977365225553512,-0.3281063437461853
31305486035,626,31300000000,world,0.1893624812364578,0.0995854288339614,-0.3030441701412201
31373242503,627,31350000000,world,0.1593659222126007,0.0987938120961189,-0.2779221832752228
31416127664,628,31400000000,world,0.1278887689113617,0.0929002687335014,-0.2458168268203735
31468239883,629,31450000000,world,0.1051687374711036,0.0947014316916465,-0.2213188111782074
31499496527,630,31500000000,world,0.0768229812383651,0.0943756103515625,-0.1929581016302108
31569591774,631,31550000000,world,0.0526251047849655,0.0924059599637985,-0.1656312644481659
31603920872,632,31600000000,world,0.0250052940100431,0.0927898660302162,-0.1365707218647003
31662836869,633,31650000000,world,0.0049885641783475,0.0939651355147361,-0.1099790036678314
31702724479,634,31700000000,world,-0.0392620936036109,0.0852666422724723,-0.0792498663067817
31769959683,635,31750000000,world,-0.0584209039807319,0.0851386487483978,-0.0509226135909557
31801337249,636,31800000000,world,-0.0789235234260559,0.0848218500614166,-0.0194617174565792
31879439949,637,31850000000,world,-0.1004788354039192,0.0854418575763702,0.0106504224240779
31905603828,638,31900000000,world,-0.1225012466311454,0.0844615250825882,0.0426010414958
31969976047,639,31950000000,world,-0.1510784775018692,0.0797289311885833,0.0835720896720886
32001475649,640,32000000000,world,-0.1722144186496734,0.08159751445055,0.1152069419622421
32104303344,641,32050000000,world,-0.1886315047740936,0.0801799446344375,0.1464341580867767
32131943332,642,32100000000,world,-0.2055691629648208,0.0795945599675178,0.1804403662681579
32211450168,643,32150000000,world,-0.2179561555385589,0.0822971761226654,0.2177883386611938
32245565128,644,32200000000,world,-0.2339639216661453,0.0800136774778366,0.2447355836629867
32291566019,645,32250000000,world,-0.2556057870388031,0.0804910883307457,0.2914348840713501
32314554092,646,32300000000,world,-0.2676881551742553,0.0811993330717086,0.3265327513217926
32362032976,647,32350000000,world,-0.2762430906295776,0.0828856751322746,0.3652077615261078
32417639460,648,32400000000,world,-0.2849270403385162,0.0794309452176094,0.3965473473072052
32471102428,649,32450000000,world,-0.2914371192455292,0.0812100172042846,0.4378544092178345
32506374895,650,32500000000,world,-0.2052534371614456,-0.0059572150930762,0.527888834476471
32587450845,651,32550000000,world,-0.2102062255144119,-0.004429493099451,0.5663034915924072
32617919181,652,32600000000,world,-0.2127406448125839,-0.005715288221836,0.6019884347915649
32693262997,653,32650000000,world,-0.2126403748989105,-0.0058470913209021,0.6392554044723511
32725607104,654,32700000000,world,-0.2157657593488693,-0.0048024668358266,0.6851738095283508
32769673331,655,32750000000,world,-0.2151155322790146,-0.0042908573523163,0.7208489179611206
32807444623,656,32800000000,world,-0.2127965688705444,-0.0048118969425559,0.7584652900695801
32872049533,657,32850000000,world,-0.2062314450740814,-0.004059275612235,0.7970701456069946
32916371022,658,32900000000,world,-0.2018114179372787,-0.0043738917447626,0.829936146736145
32973311944,659,32950000000,world,-0.1971476972103119,-0.0029155798256397,0.868522584438324
33018238631,660,33000000000,world,-0.188873142004013,-0.0040455684065818,0.905039370059967
33072614088,661,33050000000,world,-0.1790094822645187,-0.0055939811281859,0.9428797960281372
33115491549,662,33100000000,world,-0.1683956235647201,-0.0051201335154473,0.9798587560653688
33180214484,663,33150000000,world,-0.155824676156044,-0.0018592801643535,1.0166081190109253
33217843537,664,33200000000,world,-0.1427542865276336,-0.0051322691142559,1.0485022068023682
33287981311,665,33250000000,world,-0.1256915926933288,-0.0015332689508795,1.0867969989776611
33322465123,666,33300000000,world,-0.1108939945697784,-0.0030496958643198,1.1185252666473389
33384008983,667,33350000000,world,-0.0961939841508865,-0.0042687216773629,1.1530914306640625
